[
    {
        "id": "c18ca2b2-38e2-4661-a40a-bfbd27fba075",
        "name": "Route 66",
        "countryName": "USA",
        "imageURL": "seneca-image-cdn:///memory-location-images/11thFebOnwards/Route%2066%2C%20USA.-min.jpg",
        "latitude": "35.254689",
        "longitude": "-101.643901"
    },
    {
        "id": "30bccc36-1674-46d9-acb0-420c2d5d5024",
        "name": "Jiabang",
        "countryName": "China",
        "imageURL": "seneca-image-cdn:///memory-location-images/Jiabang%2C%20China-min%2Cw_750.jpg",
        "latitude": "25.585503",
        "longitude": "107.628993"
    },
    {
        "id": "730a6f0b-62f9-4131-871f-f17056856eb4",
        "name": "Crete",
        "countryName": "Greece",
        "imageURL": "seneca-image-cdn:///memory-location-images/Crete%2C%20Greece-min.jpg",
        "latitude": "35.240117",
        "longitude": "24.809269"
    },
    {
        "id": "e2f08e7d-cef2-45c2-9e8c-5925718d1cef",
        "name": "Achen",
        "countryName": "Germany",
        "imageURL": "seneca-image-cdn:///memory-location-images/Achen%2C%20Germany-min.jpg",
        "latitude": "50.775346",
        "longitude": "6.083887"
    },
    {
        "id": "8e95d7f2-3267-462b-aeaf-7b48d55f0d92",
        "name": "Vatican",
        "countryName": "Vatican City",
        "imageURL": "seneca-image-cdn:///memory-location-images/Vatican%2C%20Vatican%20City-min.jpg",
        "latitude": "41.902916",
        "longitude": "12.453389"
    },
    {
        "id": "27690ed1-e9a8-44e3-a41b-52f07068e206",
        "name": "Kuala Lumpur",
        "countryName": "Malaysia",
        "imageURL": "seneca-image-cdn:///memory-location-images/Kuala%20Lumpur%2C%20Malaysia-min.jpg",
        "latitude": "3.157764",
        "longitude": "101.71186"
    },
    {
        "id": "391f8a7c-9065-42f1-b1b0-3992955d2134",
        "name": "Aran Islands",
        "countryName": "Ireland",
        "imageURL": "seneca-image-cdn:///memory-location-images/Aran%20Islands%2C%20Ireland-min.jpg",
        "latitude": "53.097175",
        "longitude": "-9.656332"
    },
    {
        "id": "0e6c4298-7f19-48c3-987b-3091ac9c2dcc",
        "name": "Mumbai",
        "countryName": "India",
        "imageURL": "seneca-image-cdn:///memory-location-images/11thFebOnwards/Mumbai%2C%20India-min.jpg",
        "latitude": "19.075984",
        "longitude": "72.877656"
    },
    {
        "id": "2f3ade7a-eede-46c9-8747-13a44915f630",
        "name": "San Pedro de Atacama",
        "countryName": "Chile",
        "imageURL": "seneca-image-cdn:///memory-location-images/San%20Pedro%20de%20Atacama%2C%20Chile-min%2Cw_750.jpeg",
        "latitude": "-22.908707",
        "longitude": "-68.199716"
    },
    {
        "id": "22cfac1e-5c92-4532-9293-355ee0320031",
        "name": "Arashiyama",
        "countryName": "Japan",
        "imageURL": "seneca-image-cdn:///memory-location-images/Arashiyama%2C%20Japan-min.jpg",
        "latitude": "35.009449",
        "longitude": "135.666773"
    },
    {
        "id": "e73df726-adad-47f4-9198-447263c33226",
        "name": "Skogar",
        "countryName": "Iceland",
        "imageURL": "seneca-image-cdn:///memory-location-images/Skogar%2C%20Iceland-min.jpg",
        "latitude": "63.526843",
        "longitude": "-19.500204"
    },
    {
        "id": "155504d1-c6dd-479e-b7d7-dc68c731ac9a",
        "name": "Geirangerfjord",
        "countryName": "Norway",
        "imageURL": "seneca-image-cdn:///memory-location-images/Geirangerfjord%2C%20Norway-min.jpg",
        "latitude": "62.101506",
        "longitude": "7.094082"
    },
    {
        "id": "78a768db-1770-4eaa-9d46-2cdb0ecf014e",
        "name": "Mount Kilimanjaro",
        "countryName": "Tanzania",
        "imageURL": "seneca-image-cdn:///memory-location-images/Mount%20Kilimanjaro%2C%20Tanzania-min%2Cw_750.jpeg",
        "latitude": "-3.067425",
        "longitude": "37.355627"
    },
    {
        "id": "e12dc483-a163-4c2d-a13a-db2925bd4d59",
        "name": "Palacio De Cibeles",
        "countryName": "Spain",
        "imageURL": "seneca-image-cdn:///memory-location-images/Palacio%20De%20Cibeles%2C%20Spain-min.jpg",
        "latitude": "40.416775",
        "longitude": "-3.70379"
    },
    {
        "id": "3bcb7f13-d2b8-4c2c-bae1-b5cab714417c",
        "name": "Dingboche",
        "countryName": "Nepal",
        "imageURL": "seneca-image-cdn:///memory-location-images/Dingboche%2C%20Nepal-min.jpg",
        "latitude": "27.892303",
        "longitude": "86.831447"
    },
    {
        "id": "1918a97c-962d-4338-afd8-656dd0fcf416",
        "name": "Shenzhen",
        "countryName": "China",
        "imageURL": "seneca-image-cdn:///memory-location-images/Shenzhen%2C%20China-min.jpg",
        "latitude": "22.543096",
        "longitude": "114.057865"
    },
    {
        "id": "94dd8cae-9704-4a02-872d-9fbf9ecff873",
        "name": "Straslund",
        "countryName": "Germany",
        "imageURL": "seneca-image-cdn:///memory-location-images/Straslund%2C%20Germany-min.jpg",
        "latitude": "54.309065",
        "longitude": "13.077035"
    },
    {
        "id": "34c6796f-5c66-45a4-82b4-fab93ac89212",
        "name": "Brisbane",
        "countryName": "Australia",
        "imageURL": "seneca-image-cdn:///memory-location-images/Brisbane%2C%20Australia-min.jpg",
        "latitude": "-27.469771",
        "longitude": "153.025124"
    },
    {
        "id": "15ab607c-5fce-4688-8209-46006ff1ecd3",
        "name": "Tindholmur",
        "countryName": "Faroe Islands",
        "imageURL": "seneca-image-cdn:///memory-location-images/Tindholmur%2C%20Faroe%20Islands-min.jpg",
        "latitude": "62.078331",
        "longitude": "-7.435813"
    },
    {
        "id": "e41abffe-c0c6-48f8-bb00-907f403b34e9",
        "name": "Cordoba",
        "countryName": "Spain",
        "imageURL": "seneca-image-cdn:///memory-location-images/13thMarch/Cordoba%2C%20Spain-min.jpg",
        "latitude": "37.888175",
        "longitude": "-4.779383"
    },
    {
        "id": "74ce2d4f-f02b-4dcf-ae5d-9cdc5bfbb1ad",
        "name": "Nermut Dag",
        "countryName": "Turkey",
        "imageURL": "seneca-image-cdn:///memory-location-images/11thFebOnwards/Nermut%20Dag%2C%20Turkey-min.jpg",
        "latitude": "37.980779",
        "longitude": "38.740799"
    },
    {
        "id": "beae949a-14cf-4eaa-89c0-15a4c9ef9f88",
        "name": "Sigiriya",
        "countryName": "Sri Lanka",
        "imageURL": "seneca-image-cdn:///memory-location-images/Sigiriya%2C%20Sri%20Lanka-min.jpg",
        "latitude": "7.957173",
        "longitude": "80.760031"
    },
    {
        "id": "5552954d-dd49-4fb3-9f0a-61d6ba65f5e6",
        "name": "York",
        "countryName": "UK",
        "imageURL": "seneca-image-cdn:///memory-location-images/13thMarch/York%2C%20UK-min.jpg",
        "latitude": "53.959965",
        "longitude": "-1.087298"
    },
    {
        "id": "98c4b749-6b77-481a-afac-4ea614cb25ea",
        "name": "Ijen Crater",
        "countryName": "Indonesia",
        "imageURL": "seneca-image-cdn:///memory-location-images/Ijen%20Crator%2C%20Indonesia-min.jpg",
        "latitude": "-8.058381",
        "longitude": "114.243299"
    },
    {
        "id": "3bafe2b2-5cde-44cb-9661-a1bfaa5cbc85",
        "name": "Detroit",
        "countryName": "USA",
        "imageURL": "seneca-image-cdn:///memory-location-images/Detroit%2C%20USA-min.jpg",
        "latitude": "42.331427",
        "longitude": "-83.045754"
    },
    {
        "id": "2dd83538-0e88-4989-ac17-8b5e2d8697e1",
        "name": "Lake Baikal",
        "countryName": "Russia",
        "imageURL": "seneca-image-cdn:///memory-location-images/Lake%20Baikal%2C%20Russia-min.jpg",
        "latitude": "53.5587",
        "longitude": "108.164997"
    },
    {
        "id": "74b26115-3b2d-45ad-9248-bc44de2423ed",
        "name": "Wawel Castle",
        "countryName": "Poland",
        "imageURL": "seneca-image-cdn:///memory-location-images/Wawel%20Castle%2C%20Poland-min.jpg",
        "latitude": "50.054049",
        "longitude": "19.935412"
    },
    {
        "id": "987b0e08-ac07-47cf-ad8a-caace7842b98",
        "name": "Wurzburg",
        "countryName": "Germany",
        "imageURL": "seneca-image-cdn:///memory-location-images/13thMarch/Wurzburg%2C%20Germany-min.jpg",
        "latitude": "49.791304",
        "longitude": "9.953355"
    },
    {
        "id": "d8ab18a2-21de-464e-b342-c4e78c110f84",
        "name": "Budapest",
        "countryName": "Hungary",
        "imageURL": "seneca-image-cdn:///memory-location-images/Budapest%2C%20Hungary-min.jpg",
        "latitude": "47.497912",
        "longitude": "19.040235"
    },
    {
        "id": "de9a5d00-8098-453c-9311-74f23ca17598",
        "name": "Varanasi",
        "countryName": "India",
        "imageURL": "seneca-image-cdn:///memory-location-images/Varanasi%2C%20India-min.jpg",
        "latitude": "25.317645",
        "longitude": "82.973914"
    },
    {
        "id": "5c0dca2e-0e92-44ca-a6af-9c078b5e8c53",
        "name": "Broome",
        "countryName": "Australia",
        "imageURL": "seneca-image-cdn:///memory-location-images/Broome%2C%20Australia-min.jpg",
        "latitude": "-17.961434",
        "longitude": "122.235852"
    },
    {
        "id": "c968198b-f1a6-488a-8d0d-afbea0b3ed7e",
        "name": "Mardin",
        "countryName": "Turkey",
        "imageURL": "seneca-image-cdn:///memory-location-images/Mardin%2C%20Turkey-min.jpg",
        "latitude": "37.312903",
        "longitude": "40.733951"
    },
    {
        "id": "592baf96-77c9-4e77-9797-46f003818042",
        "name": "Grampians",
        "countryName": "Australia",
        "imageURL": "seneca-image-cdn:///memory-location-images/Grampians%2C%20Australia-min.jpg",
        "latitude": "-37.210882",
        "longitude": "142.397957"
    },
    {
        "id": "f38f041b-cab9-4028-b6e3-efa4984f726c",
        "name": "Laputa",
        "countryName": "Japan",
        "imageURL": "seneca-image-cdn:///memory-location-images/11thFebOnwards/Laputa%2C%20Japan-min.jpg",
        "latitude": "37.4900318",
        "longitude": "136.4664008"
    },
    {
        "id": "c0d0d2a3-5078-49c5-973a-429c8455d00c",
        "name": "Venice",
        "countryName": "Italy",
        "imageURL": "seneca-image-cdn:///memory-location-images/Venice%2C%20Italy-min%2Cw_750.jpeg",
        "latitude": "45.440847",
        "longitude": "12.315515"
    },
    {
        "id": "ad2c4a1a-14e8-4d9f-ab20-f054e1188669",
        "name": "Edinburgh",
        "countryName": "UK",
        "imageURL": "seneca-image-cdn:///memory-location-images/Edinburgh%2C%20Scotland-min%2Cw_750.jpeg",
        "latitude": "55.953252",
        "longitude": "-3.188267"
    },
    {
        "id": "c50f7ea2-a04e-4dd5-ad6c-478ffe3c2c06",
        "name": "Nara",
        "countryName": "Japan",
        "imageURL": "seneca-image-cdn:///memory-location-images/11thFebOnwards/Nara%2C%20Japan-min.jpg",
        "latitude": "34.68505",
        "longitude": "135.80485"
    },
    {
        "id": "e9becac1-3e3a-4bac-9915-a8ed12ed0028",
        "name": "Manarola",
        "countryName": "Italy",
        "imageURL": "seneca-image-cdn:///memory-location-images/13thMarch/Manarola%2C%20Italy-min.jpg",
        "latitude": "44.111559",
        "longitude": "9.733894"
    },
    {
        "id": "8d320b4e-8d44-4693-808a-9b420237188e",
        "name": "New York",
        "countryName": "USA",
        "imageURL": "seneca-image-cdn:///memory-location-images/New%20York%2C%20USA-min%2Cw_750.jpg",
        "latitude": "40.712775",
        "longitude": "-74.005973"
    },
    {
        "id": "ab36d940-72ed-4b5e-867c-6d540010b6b6",
        "name": "Castle Combe",
        "countryName": "UK",
        "imageURL": "seneca-image-cdn:///memory-location-images/13thMarch/Castle%20Combe%2C%20UK-min.jpg",
        "latitude": "51.49337",
        "longitude": "-2.228923"
    },
    {
        "id": "c7363d34-ee61-4b23-a722-e299abaaf806",
        "name": "Strasbourg",
        "countryName": "France",
        "imageURL": "seneca-image-cdn:///memory-location-images/11thFebOnwards/Strasbourg%2C%20France-min.jpg",
        "latitude": "48.573405",
        "longitude": "7.752111"
    },
    {
        "id": "723edfbb-23bb-4c36-8d3a-250b1a811b89",
        "name": "Ronda",
        "countryName": "Spain",
        "imageURL": "seneca-image-cdn:///memory-location-images/Ronda%2C%20Spain-min%2Cw_750.jpeg",
        "latitude": "36.746209",
        "longitude": "-5.161225"
    },
    {
        "id": "93ed8621-f0a3-465d-ae85-d498f8057600",
        "name": "Reine",
        "countryName": "Norway",
        "imageURL": "seneca-image-cdn:///memory-location-images/13thMarch/Reine%2C%20Norway-min.jpg",
        "latitude": "67.932387",
        "longitude": "13.088733"
    },
    {
        "id": "784a7729-3c4e-4031-bdf6-fc2abac6b3c7",
        "name": "Manitoba",
        "countryName": "Canada",
        "imageURL": "seneca-image-cdn:///memory-location-images/Manitoba%2C%20Canada-min.jpg",
        "latitude": "53.760861",
        "longitude": "-98.813876"
    },
    {
        "id": "8d595e35-3184-4829-bf2a-556e125df24d",
        "name": "Corfu",
        "countryName": "Greece",
        "imageURL": "seneca-image-cdn:///memory-location-images/11thFebOnwards/Corfu%2C%20Greece-min.jpg",
        "latitude": "39.624262",
        "longitude": "19.921678"
    },
    {
        "id": "307a9e5f-9ce9-4d80-8608-aff58ef06280",
        "name": "Lucca",
        "countryName": "Italy",
        "imageURL": "seneca-image-cdn:///memory-location-images/Lucca%2C%20Italy-min.jpg",
        "latitude": "43.837621",
        "longitude": "10.495061"
    },
    {
        "id": "68325b66-7a85-479e-b6f0-c0b101e075f6",
        "name": "Polonnaruwa",
        "countryName": "Sri Lanka",
        "imageURL": "seneca-image-cdn:///memory-location-images/Polonnaruwa%2C%20Sri%20Lanka-min.jpg",
        "latitude": "7.940338",
        "longitude": "81.018798"
    },
    {
        "id": "1bcef785-c367-4ce7-8ea7-b841bb026730",
        "name": "Avignon",
        "countryName": "France",
        "imageURL": "seneca-image-cdn:///memory-location-images/Avignon%2C%20France-min.jpg",
        "latitude": "43.949317",
        "longitude": "4.805528"
    },
    {
        "id": "dc395582-1911-434a-b96b-dd39a21ced4f",
        "name": "Jemaa al-Fnaa",
        "countryName": "Morocco",
        "imageURL": "seneca-image-cdn:///memory-location-images/13thMarch/Jemaa%20al-Fnaa%2C%20Morocco-min.jpg",
        "latitude": "31.625788",
        "longitude": "-7.989049"
    },
    {
        "id": "cc6a125c-24c1-4642-b12c-8e18c5b395ee",
        "name": "Lake Nakuru",
        "countryName": "Kenya",
        "imageURL": "seneca-image-cdn:///memory-location-images/13thMarch/Lake%20Nakuru%2C%20Kenya-min.jpg",
        "latitude": "-0.356166",
        "longitude": "36.100211"
    },
    {
        "id": "917e2706-4f1d-40d7-99f4-c78d69865c93",
        "name": "Singapore",
        "countryName": "Singapore",
        "imageURL": "seneca-image-cdn:///memory-location-images/Singapore%2C%20Singapore-min%2Cw_750.jpg",
        "latitude": "1.352083",
        "longitude": "103.819836"
    },
    {
        "id": "64e55422-9820-4200-8dc4-5f0e87c7ce92",
        "name": "Rock of Gibraltar",
        "countryName": "Gibraltar",
        "imageURL": "seneca-image-cdn:///memory-location-images/11thFebOnwards/Rock%20of%20Gibraltar%2C%20Gibraltar-min.jpg",
        "latitude": "36.144093",
        "longitude": "-5.341724"
    },
    {
        "id": "8be9c6b4-ba5f-4a90-b954-9ddb518c3212",
        "name": "Pont Du Gard",
        "countryName": "France",
        "imageURL": "seneca-image-cdn:///memory-location-images/Pont%20Du%20Gard%2C%20France-min.jpg",
        "latitude": "43.947566",
        "longitude": "4.53496"
    },
    {
        "id": "29300d27-bdf9-4833-8abd-b9081159f68b",
        "name": "Donostia",
        "countryName": "Spain",
        "imageURL": "seneca-image-cdn:///memory-location-images/Donostia%2C%20Spain-min.jpg",
        "latitude": "43.31283",
        "longitude": "-1.97499"
    },
    {
        "id": "9b37e29d-a8af-4d2e-962e-b5cc16f80e58",
        "name": "Johannesburg",
        "countryName": "South Africa",
        "imageURL": "seneca-image-cdn:///memory-location-images/13thMarch/Johannesburg%2C%20South%20Africa-min.jpg",
        "latitude": "-26.204103",
        "longitude": "28.047305"
    },
    {
        "id": "370abe9c-7bfb-46b4-be8d-a65849f2e688",
        "name": "Pena Palace",
        "countryName": "Portugal",
        "imageURL": "seneca-image-cdn:///memory-location-images/11thFebOnwards/Pena%20Palace%2C%20Portugal-min.jpg",
        "latitude": "38.787585",
        "longitude": "-9.390609"
    },
    {
        "id": "b40b0378-ecd4-4a30-b3ee-d0daf9294629",
        "name": "Montego Bay",
        "countryName": "Jamaica",
        "imageURL": "seneca-image-cdn:///memory-location-images/Montego%20Bay%2C%20Jamaica-min.jpg",
        "latitude": "18.476223",
        "longitude": "-77.89389"
    },
    {
        "id": "5c65a43c-c902-41e9-83d2-a6fbbde7eac3",
        "name": "San Juan",
        "countryName": "Puerto Rico",
        "imageURL": "seneca-image-cdn:///memory-location-images/11thFebOnwards/San%20Juan%2C%20Puerto%20Rico-min.jpg",
        "latitude": "18.465539",
        "longitude": "-66.105735"
    },
    {
        "id": "8cefa4b5-8135-48a3-a3db-bf27e586b9b1",
        "name": "Cano Cristales",
        "countryName": "Colombia",
        "imageURL": "seneca-image-cdn:///memory-location-images/Cano%20Cristales%2C%20Colombia-min.jpg",
        "latitude": "2.264208",
        "longitude": "-73.794467"
    },
    {
        "id": "9c57cdc3-8557-45c9-aa5b-3cf77de06f33",
        "name": "Qutb Minar",
        "countryName": "India",
        "imageURL": "seneca-image-cdn:///memory-location-images/11thFebOnwards/Qutb%20Minar%2C%20India%20-min.jpg",
        "latitude": "28.524428",
        "longitude": "77.185456"
    },
    {
        "id": "899eefa7-c96a-4564-ac55-c92ddb547510",
        "name": "Sultan Ahmed Mosque",
        "countryName": "Turkey",
        "imageURL": "seneca-image-cdn:///memory-location-images/11thFebOnwards/Sultan%20Ahmed%20Mosque%2C%20Turkey-min.jpg",
        "latitude": "41.00541",
        "longitude": "28.976814"
    },
    {
        "id": "1f6aab50-8908-4606-8b17-5db59c9092c9",
        "name": "Savannah",
        "countryName": "USA",
        "imageURL": "seneca-image-cdn:///memory-location-images/Savannah%2C%20USA-min.jpg",
        "latitude": "32.083541",
        "longitude": "-81.099834"
    },
    {
        "id": "9b646102-c2ef-40b7-89a5-244872171f8c",
        "name": "Wadden Sea",
        "countryName": "Netherlands",
        "imageURL": "seneca-image-cdn:///memory-location-images/Wadden%20Sea%2C%20Netherlands-min.jpg",
        "latitude": "53.578688",
        "longitude": "6.949508"
    },
    {
        "id": "c3c3b36c-40a5-4b68-93fe-938e1769628d",
        "name": "Taktsang Palphug",
        "countryName": "Bhutan",
        "imageURL": "seneca-image-cdn:///memory-location-images/13thMarch/Takstang%20Palphug%2C%20Bhutan-min.jpg",
        "latitude": "27.491893",
        "longitude": "89.363496"
    },
    {
        "id": "c0bc10b3-a948-4f54-bc5a-7308779e45fd",
        "name": "Sinaia",
        "countryName": "Romania",
        "imageURL": "seneca-image-cdn:///memory-location-images/11thFebOnwards/Sinaia%2C%20Romania-min.jpg",
        "latitude": "45.331043",
        "longitude": "25.56235"
    },
    {
        "id": "0a946117-cc70-404c-b7b9-125b38dc4cea",
        "name": "Yalta",
        "countryName": "Ukraine",
        "imageURL": "seneca-image-cdn:///memory-location-images/13thMarch/Yalta%2C%20Ukraine-min.jpg",
        "latitude": "44.495205",
        "longitude": "34.166301"
    },
    {
        "id": "9b599f9a-a673-4ad3-bc99-e0fc49397278",
        "name": "Osorno Volcano",
        "countryName": "Chile",
        "imageURL": "seneca-image-cdn:///memory-location-images/Osorno%20Volcano%2C%20Chile-min.jpg",
        "latitude": "-41.104167",
        "longitude": "-72.495833"
    },
    {
        "id": "f50dec8e-c0c5-417c-adab-bf6e59f632f5",
        "name": "Kathmandu",
        "countryName": "Nepal",
        "imageURL": "seneca-image-cdn:///memory-location-images/Kathmandu%2C%20Nepal-min.jpg",
        "latitude": "27.717245",
        "longitude": "85.32396"
    },
    {
        "id": "e5d70c48-f8f5-4f5b-a2da-3008e1ab09d7",
        "name": "Papeete",
        "countryName": "Tahiti",
        "imageURL": "seneca-image-cdn:///memory-location-images/11thFebOnwards/Papeete%2C%20Tahiti-min.jpg",
        "latitude": "-17.551625",
        "longitude": "-149.558476"
    },
    {
        "id": "5c1f19e5-4a48-4c32-b461-2e9592148db4",
        "name": "Riddarholmen Cathedral",
        "countryName": "Sweden",
        "imageURL": "seneca-image-cdn:///memory-location-images/11thFebOnwards/Riddarholmen%20Cathedral%2C%20Sweden-min.jpg",
        "latitude": "59.324681",
        "longitude": "18.064578"
    },
    {
        "id": "a8660c51-d2dc-4db5-8140-b78a337d8115",
        "name": "Jaipur",
        "countryName": "India",
        "imageURL": "seneca-image-cdn:///memory-location-images/Jaipur%2C%20India-min.jpg",
        "latitude": "26.912434",
        "longitude": "75.787271"
    },
    {
        "id": "e1f56719-447f-4074-83e7-407a94d91e8a",
        "name": "El Penol",
        "countryName": "Colombia",
        "imageURL": "seneca-image-cdn:///memory-location-images/El%20Penol%2C%20Colombia-min.jpg",
        "latitude": "6.223611",
        "longitude": "-75.178333"
    },
    {
        "id": "954717cd-0d14-46e5-a848-6f05ce9b1333",
        "name": "Zhangye Danxia",
        "countryName": "China",
        "imageURL": "seneca-image-cdn:///memory-location-images/Zhangye%20Danxia%2C%20China-min.jpg",
        "latitude": "39.089205",
        "longitude": "100.147981"
    },
    {
        "id": "52fe61f3-872b-4874-af88-5344618cb6ea",
        "name": "Ibiza",
        "countryName": "Spain",
        "imageURL": "seneca-image-cdn:///memory-location-images/Ibiza%2C%20Spain-min.jpg",
        "latitude": "39.02001",
        "longitude": "1.482148"
    },
    {
        "id": "29f0410e-1a5c-489c-9ab9-ed407603c5da",
        "name": "Sukhothai",
        "countryName": "Thailand",
        "imageURL": "seneca-image-cdn:///memory-location-images/11thFebOnwards/Sukhothai%2C%20Thailand-min.jpg",
        "latitude": "17.0076",
        "longitude": "99.8264"
    },
    {
        "id": "20fa481b-507f-4d5e-aff3-4b4799032284",
        "name": "Swallow Cave",
        "countryName": "Tonga",
        "imageURL": "seneca-image-cdn:///memory-location-images/Swallow%20Cave%2C%20Tonga-min.jpg",
        "latitude": "-21.178986",
        "longitude": "-175.198242"
    },
    {
        "id": "2ac707d7-416b-4dc8-9af5-254c57aa15e0",
        "name": "Kutna Hora",
        "countryName": "Czech Republic",
        "imageURL": "seneca-image-cdn:///memory-location-images/Kutna%20Hora%2C%20Czech%20Republic-min.jpg",
        "latitude": "49.952431",
        "longitude": "15.268654"
    },
    {
        "id": "ea5091f0-687a-47f9-9b71-ad0282cc76d7",
        "name": "River Nile",
        "countryName": "Egypt",
        "imageURL": "seneca-image-cdn:///memory-location-images/River%20Nile%2C%20Egypt-min.jpg",
        "latitude": "26.187995",
        "longitude": "32.068614"
    },
    {
        "id": "ec92ba02-b553-425b-9c0e-66e21dd7d2aa",
        "name": "Toronto",
        "countryName": "Canada",
        "imageURL": "seneca-image-cdn:///memory-location-images/Toronto%2C%20Canada-min%2Cw_750.jpeg",
        "latitude": "43.653226",
        "longitude": "-79.383184"
    },
    {
        "id": "7f1ab78e-7126-4347-88bb-3303d1728e61",
        "name": "Kuala Lumpur",
        "countryName": "Malaysia",
        "imageURL": "seneca-image-cdn:///memory-location-images/Kuala%20Lumpar%2C%20Malaysia-min.jpg",
        "latitude": "3.139003",
        "longitude": "101.686855"
    },
    {
        "id": "623cd489-6921-4b69-8288-29d32cec47f7",
        "name": "Mount Everest",
        "countryName": "Nepal",
        "imageURL": "seneca-image-cdn:///memory-location-images/Mount%20Everest%2C%20Nepal-min%2Cw_750.jpeg",
        "latitude": "27.98785",
        "longitude": "86.925026"
    },
    {
        "id": "b1239684-0d8e-44ea-94e4-fe65ec4f4e88",
        "name": "Yosemite",
        "countryName": "USA",
        "imageURL": "seneca-image-cdn:///memory-location-images/Yosemite%2C%20USA-min%2Cw_750.jpeg",
        "latitude": "37.865101",
        "longitude": "-119.538329"
    },
    {
        "id": "3b82eec2-4ac0-4b0e-b7f6-657c928798f8",
        "name": "Rocca Scaligera",
        "countryName": "Italy",
        "imageURL": "seneca-image-cdn:///memory-location-images/Rocca%20Scaligera%2C%20Italy-min.jpg",
        "latitude": "45.492411",
        "longitude": "10.608298"
    },
    {
        "id": "5566e5a0-5de1-46a3-a7a3-60309fceca0b",
        "name": "Brno",
        "countryName": "Czech Republic",
        "imageURL": "seneca-image-cdn:///memory-location-images/Brno%2C%20Czech%20Republic-min.jpg",
        "latitude": "49.19506",
        "longitude": "16.606837"
    },
    {
        "id": "26426c21-b8e9-4497-944b-58a97d79c5c6",
        "name": "Bangla Sahib",
        "countryName": "India",
        "imageURL": "seneca-image-cdn:///memory-location-images/Bangla%20Sahib%2C%20India-min.jpg",
        "latitude": "28.613939",
        "longitude": "77.209021"
    },
    {
        "id": "c7babc17-113a-49ca-a9b5-3bfae01246ae",
        "name": "Guatemala City",
        "countryName": "Guatemala",
        "imageURL": "seneca-image-cdn:///memory-location-images/13thMarch/Guatemala%20City%2C%20Guatemala-min.jpg",
        "latitude": "14.634915",
        "longitude": "-90.506882"
    },
    {
        "id": "7ae33324-0bc8-41e2-95d1-5dd9c82a6a3c",
        "name": "Gili Islands",
        "countryName": "Indonesia",
        "imageURL": "seneca-image-cdn:///memory-location-images/Gili%20Islands%2C%20Indonesia-min.jpg",
        "latitude": "-8.351844",
        "longitude": "116.056163"
    },
    {
        "id": "96b4cc2e-e730-443a-a1c3-5a42094e37f3",
        "name": "Jungfraujoch",
        "countryName": "Switzerland",
        "imageURL": "seneca-image-cdn:///memory-location-images/13thMarch/Jungfraujoch%2C%20Sweden-min.jpg",
        "latitude": "46.54249783",
        "longitude": "7.986329388"
    },
    {
        "id": "ace980bc-849a-4733-bbd9-d004b1a46105",
        "name": "Kronborg Slot",
        "countryName": "Denmark",
        "imageURL": "seneca-image-cdn:///memory-location-images/Kronborg%20Slot%2C%20Denmark-min.jpg",
        "latitude": "56.039014",
        "longitude": "12.621155"
    },
    {
        "id": "00c2e0f1-26ed-4d26-be74-0b4658fb43e2",
        "name": "Lourdes",
        "countryName": "France",
        "imageURL": "seneca-image-cdn:///memory-location-images/Lourdes%2C%20France-min.jpg",
        "latitude": "43.091463",
        "longitude": "-0.045726"
    },
    {
        "id": "ae6ad605-220e-4529-8c74-705c373becb8",
        "name": "Tonle Sap",
        "countryName": "Cambodia",
        "imageURL": "seneca-image-cdn:///memory-location-images/Tonle%20Sap%2C%20Cambodia-min.jpg",
        "latitude": "12.927639",
        "longitude": "104.053674"
    },
    {
        "id": "32aff732-bb97-4477-9f0f-e982c59ee5ef",
        "name": "Chefchaouen",
        "countryName": "Morocco",
        "imageURL": "seneca-image-cdn:///memory-location-images/13thMarch/Chefchaouen%2C%20Morocco-min.jpg",
        "latitude": "35.168796",
        "longitude": "-5.268364"
    },
    {
        "id": "eba323c0-697f-47f3-b81f-8e5c53c97fd6",
        "name": "Bagan",
        "countryName": "Myanmar",
        "imageURL": "seneca-image-cdn:///memory-location-images/13thMarch/Bagan%2C%20Myanmar-min.jpg",
        "latitude": "21.171727",
        "longitude": "94.858546"
    },
    {
        "id": "46f3a999-9e05-42cf-b216-17b5f6785544",
        "name": "Jaisalmer",
        "countryName": "India",
        "imageURL": "seneca-image-cdn:///memory-location-images/Jaisalmer%2C%20India-min.jpg",
        "latitude": "26.915749",
        "longitude": "70.908344"
    },
    {
        "id": "d574308d-87a4-4458-bb6b-cda7565bb94b",
        "name": "Ogasawara",
        "countryName": "Japan",
        "imageURL": "seneca-image-cdn:///memory-location-images/11thFebOnwards/Ogasawara%2C%20Japan-min.jpg",
        "latitude": "27.094366",
        "longitude": "142.191918"
    },
    {
        "id": "56c5b4d0-55af-4a20-a703-6b835bfc185b",
        "name": "Seattle",
        "countryName": "USA",
        "imageURL": "seneca-image-cdn:///memory-location-images/Seattle%2C%20USA-min%2Cw_750.jpeg",
        "latitude": "47.606209",
        "longitude": "-122.332071"
    },
    {
        "id": "8320875a-4eb0-4f21-a18c-c806dcd04f21",
        "name": "Thessaloniki",
        "countryName": "Greece",
        "imageURL": "seneca-image-cdn:///memory-location-images/11thFebOnwards/Thessaloniki%2C%20Greece-min.jpg",
        "latitude": "40.640063",
        "longitude": "22.944419"
    },
    {
        "id": "84009887-ee43-48e2-bb9c-a0aa07dc5f48",
        "name": "Monaco",
        "countryName": "Monaco",
        "imageURL": "seneca-image-cdn:///memory-location-images/Monaco%2C%20Monaco-min%2Cw_750.jpeg",
        "latitude": "43.738418",
        "longitude": "7.424616"
    },
    {
        "id": "dbc4bce2-ecd5-4406-9181-cc0bdb0d0f28",
        "name": "Daintree Forest",
        "countryName": "Australia",
        "imageURL": "seneca-image-cdn:///memory-location-images/Daintree%20Forest%2C%20Australia-min.jpg",
        "latitude": "-16.170031",
        "longitude": "145.418461"
    },
    {
        "id": "77e13a22-868e-47c0-8eff-0c34b890f30d",
        "name": "Sapporo",
        "countryName": "Japan",
        "imageURL": "seneca-image-cdn:///memory-location-images/11thFebOnwards/Sapporo%2C%20Japan-min.jpg",
        "latitude": "43.062096",
        "longitude": "141.354376"
    },
    {
        "id": "0335e801-dc74-433e-a8c9-e382bc89c86e",
        "name": "Himachal Pradesh",
        "countryName": "India",
        "imageURL": "seneca-image-cdn:///memory-location-images/Himachal%20Pradesh%2C%20India-min.jpg",
        "latitude": "31.104829",
        "longitude": "77.17339"
    },
    {
        "id": "ed0c12cd-6af4-45f4-8c32-cb808d730f05",
        "name": "Itchan Kala",
        "countryName": "Uzbekistan",
        "imageURL": "seneca-image-cdn:///memory-location-images/Itchan%20Kala%2C%20Uzbekistan-min.jpg",
        "latitude": "41.389508",
        "longitude": "60.341453"
    },
    {
        "id": "42ebb225-8e0f-4975-a527-3bf74300d2b1",
        "name": "Marsaxlokk",
        "countryName": "Malta",
        "imageURL": "seneca-image-cdn:///memory-location-images/13thMarch/Marsaxlokk%2C%20Malta-min.jpg",
        "latitude": "35.84117",
        "longitude": "14.53931"
    },
    {
        "id": "a294e73e-dac5-43e3-adf4-b4978ac48768",
        "name": "Gdansk",
        "countryName": "Poland",
        "imageURL": "seneca-image-cdn:///memory-location-images/Gdansk%2C%20Poland-min.jpg",
        "latitude": "54.352025",
        "longitude": "18.646638"
    },
    {
        "id": "17e0eef2-db00-42da-9c59-9be201969b6c",
        "name": "Rhodes",
        "countryName": "Greece",
        "imageURL": "seneca-image-cdn:///memory-location-images/Rhodes%2C%20Greece-min.jpg",
        "latitude": "36.434053",
        "longitude": "28.217638"
    },
    {
        "id": "ff4d267e-ba22-46e5-8143-484b4f449752",
        "name": "Persian Gardens",
        "countryName": "Iran",
        "imageURL": "seneca-image-cdn:///memory-location-images/Persian%20Gardens%2C%20Iran-min.jpg",
        "latitude": "29.635666",
        "longitude": "52.525543"
    },
    {
        "id": "001b09dd-8ddb-4b2c-a30e-66b54c39dc99",
        "name": "Ottawa",
        "countryName": "Canada",
        "imageURL": "seneca-image-cdn:///memory-location-images/11thFebOnwards/Ottawa%2C%20Canada-min.jpg",
        "latitude": "45.42153",
        "longitude": "-75.697193"
    },
    {
        "id": "8043f12f-fbd7-421c-ba77-41a228769a7c",
        "name": "The Bolshoi",
        "countryName": "Russia",
        "imageURL": "seneca-image-cdn:///memory-location-images/The%20Bolshoi%2C%20Russia-min.jpg",
        "latitude": "55.760133",
        "longitude": "37.618649"
    },
    {
        "id": "0ba9b6c1-820a-47c2-b16e-a8b36ce73725",
        "name": "Zakynthos",
        "countryName": "Greece",
        "imageURL": "seneca-image-cdn:///memory-location-images/13thMarch/Zakynthos%2C%20Greece-min.jpg",
        "latitude": "37.787033",
        "longitude": "20.899876"
    },
    {
        "id": "10c2771b-ff62-4183-8996-94d6c9de34bb",
        "name": "Leeds Castle",
        "countryName": "UK",
        "imageURL": "seneca-image-cdn:///memory-location-images/Leeds%20Castle%2C%20UK-min.jpg",
        "latitude": "51.24899",
        "longitude": "0.630465"
    },
    {
        "id": "ae4c0e10-1f25-44c6-a8e1-ebee00d9caec",
        "name": "Dry Tortugas",
        "countryName": "USA",
        "imageURL": "seneca-image-cdn:///memory-location-images/Dry%20Tortugas%2C%20USA-min.jpg",
        "latitude": "24.633333",
        "longitude": "-82.92"
    },
    {
        "id": "e84238eb-4de8-4e60-b449-fddfb9d418a9",
        "name": "Lake Retba",
        "countryName": "Senegal",
        "imageURL": "seneca-image-cdn:///memory-location-images/Lake%20Retba%2C%20Senegal-min.jpg",
        "latitude": "14.838784",
        "longitude": "-17.234132"
    },
    {
        "id": "77562192-3ea0-4e06-b5ec-fdd5f20eda6a",
        "name": "Kauai",
        "countryName": "Hawaii",
        "imageURL": "seneca-image-cdn:///memory-location-images/Kauai%2C%20Hawaii-min.jpg",
        "latitude": "22.09644",
        "longitude": "-159.526124"
    },
    {
        "id": "27e4c935-c95a-4072-9a54-1ae91a3b1999",
        "name": "Regensburg",
        "countryName": "Germany",
        "imageURL": "seneca-image-cdn:///memory-location-images/Regensburg%2C%20Germany-min.jpg",
        "latitude": "49.01343",
        "longitude": "12.101624"
    },
    {
        "id": "07561ea9-1e70-4daa-bff9-2b6724c739e3",
        "name": "Tiwanaku",
        "countryName": "Bolivia",
        "imageURL": "seneca-image-cdn:///memory-location-images/11thFebOnwards/Tiwanaku%2C%20Bolivia-min.jpg",
        "latitude": "-16.555616",
        "longitude": "-68.673923"
    },
    {
        "id": "cae14c83-274c-430f-b5b2-ad2eea0a7da5",
        "name": "Zayed Grand Mosque",
        "countryName": "UAE",
        "imageURL": "seneca-image-cdn:///memory-location-images/11thFebOnwards/Zayed%20Grand%20Mosque%2C%20UAE-min.jpg",
        "latitude": "24.413394",
        "longitude": "54.474914"
    },
    {
        "id": "6de88b5d-551f-4eaa-bccd-6937ed59d2d2",
        "name": "Waitomo Caves",
        "countryName": "New Zealand",
        "imageURL": "seneca-image-cdn:///memory-location-images/13thMarch/Waitomo%20Caves%2C%20New%20Zealand-min.jpg",
        "latitude": "-38.26153",
        "longitude": "175.114545"
    },
    {
        "id": "cf4c8400-cb1e-49b7-b039-82faaf639b7e",
        "name": "Kolkata",
        "countryName": "India",
        "imageURL": "seneca-image-cdn:///memory-location-images/Kolkata%2C%20India-min.jpg",
        "latitude": "22.572646",
        "longitude": "88.363895"
    },
    {
        "id": "edf7a1c5-a6d3-42aa-ab6f-0a7f93442acf",
        "name": "Umhlanga pier",
        "countryName": "South Africa",
        "imageURL": "seneca-image-cdn:///memory-location-images/Umhlanga%20pier%2C%20South%20Africa-min.jpg",
        "latitude": "-29.726422",
        "longitude": "31.088531"
    },
    {
        "id": "dd93db6c-e4fe-40f3-a186-599925c97770",
        "name": "Nullarbor",
        "countryName": "Australia",
        "imageURL": "seneca-image-cdn:///memory-location-images/Nullarbor%2C%20Australia-min.jpg",
        "latitude": "-31.058208",
        "longitude": "130.481086"
    },
    {
        "id": "4bd746a1-884f-4a75-97f2-4dfd511e161e",
        "name": "Zhangjieajie",
        "countryName": "China",
        "imageURL": "seneca-image-cdn:///memory-location-images/13thMarch/Zhangjiajie%2C%20China-min.jpg",
        "latitude": "29.117096",
        "longitude": "110.479191"
    },
    {
        "id": "e90cfd7b-19bc-49ad-93d3-337bfbd48f6f",
        "name": "Guilin",
        "countryName": "China",
        "imageURL": "seneca-image-cdn:///memory-location-images/Gullin%2C%20China-min.jpg",
        "latitude": "25.234479",
        "longitude": "110.179953"
    },
    {
        "id": "9e184672-cc45-4f3b-b5e3-4af49a3d3dce",
        "name": "Baachus Temple",
        "countryName": "Lebanon",
        "imageURL": "seneca-image-cdn:///memory-location-images/Baachus%20Temple%2C%20Lebanon-min.jpg",
        "latitude": "34.006028",
        "longitude": "36.203873"
    },
    {
        "id": "452be727-ab3f-4f2c-9c25-b172d8e14a19",
        "name": "Mostar",
        "countryName": "Bosnia and Herzegovina",
        "imageURL": "seneca-image-cdn:///memory-location-images/Mostar%2C%20Bosnia%20and%20Herzegovina-min.jpg",
        "latitude": "43.343775",
        "longitude": "17.807758"
    },
    {
        "id": "feebcead-1d24-4627-bab6-8065fa047de1",
        "name": "Astana",
        "countryName": "Kazakhstan",
        "imageURL": "seneca-image-cdn:///memory-location-images/Astana%2C%20Kasakhstan-min.jpg",
        "latitude": "51.160523",
        "longitude": "71.470356"
    },
    {
        "id": "edb3bc2b-8795-489d-b88e-5b7c782d891c",
        "name": "Xanthos-Letoon",
        "countryName": "Turkey",
        "imageURL": "seneca-image-cdn:///memory-location-images/13thMarch/Xanthos-Letoon%2C%20Turkey-min.jpg",
        "latitude": "36.356111",
        "longitude": "29.318611"
    },
    {
        "id": "063a2cc0-3e3a-467b-86d8-80de41b62052",
        "name": "Anse Source d’Argent",
        "countryName": "Seychelles",
        "imageURL": "seneca-image-cdn:///memory-location-images/Anse%20Source%20d%E2%80%99Argent%2C%20Seychelles-min%2Cw_750.jpeg",
        "latitude": "-4.37673",
        "longitude": "55.825946"
    },
    {
        "id": "5cbfbd4a-4168-487d-b170-a4e8fe3a4dc9",
        "name": "Museum Island",
        "countryName": "Germany",
        "imageURL": "seneca-image-cdn:///memory-location-images/11thFebOnwards/Museum%20Island%2C%20Germany-min.jpg",
        "latitude": "52.516933",
        "longitude": "13.4019"
    },
    {
        "id": "9d3eac5f-cb93-49e1-990e-fe8d710f5929",
        "name": "The Pyramids",
        "countryName": "Egypt",
        "imageURL": "seneca-image-cdn:///memory-location-images/Pyramids%2C%20Egypt-min%2Cw_750.jpeg",
        "latitude": "29.979235",
        "longitude": "31.134202"
    },
    {
        "id": "70d1688f-1fa4-470e-9442-52d0a6d9fae6",
        "name": "Mysore",
        "countryName": "India",
        "imageURL": "seneca-image-cdn:///memory-location-images/11thFebOnwards/Mysore%2C%20India-min.jpg",
        "latitude": "12.29581",
        "longitude": "76.639381"
    },
    {
        "id": "fafcfbc1-2ea6-4c87-b481-23157d02044c",
        "name": "Nazare",
        "countryName": "Portugal",
        "imageURL": "seneca-image-cdn:///memory-location-images/Nazare%2C%20Portugal-min.jpg",
        "latitude": "39.604415",
        "longitude": "-9.085275"
    },
    {
        "id": "36523edf-dadc-4c7c-888b-02b6296ba736",
        "name": "Kingston",
        "countryName": "Jamaica",
        "imageURL": "seneca-image-cdn:///memory-location-images/Kingston%2C%20Jamaica-min.jpg",
        "latitude": "18.017874",
        "longitude": "-76.809904"
    },
    {
        "id": "f8af8dda-e348-4ff2-b5c9-20972afde1cf",
        "name": "Mont Saint-Michel",
        "countryName": "France",
        "imageURL": "seneca-image-cdn:///memory-location-images/Mont%20Saint-Michel%2C%20France-min.jpg",
        "latitude": "48.636063",
        "longitude": "-1.511457"
    },
    {
        "id": "105d9707-64c9-4cd3-bf81-889bd8f5b285",
        "name": "Sossusvlei Dunes",
        "countryName": "Namibia",
        "imageURL": "seneca-image-cdn:///memory-location-images/13thMarch/Sossusvlei%20Dunes%2C%20Namibia-min.jpg",
        "latitude": "-24.727757",
        "longitude": "15.472567"
    },
    {
        "id": "6ff58644-e933-4562-9685-62b183453b24",
        "name": "Belem Tower",
        "countryName": "Portugal",
        "imageURL": "seneca-image-cdn:///memory-location-images/Belem%20Tower%2C%20Portugal-min.jpg",
        "latitude": "38.691584",
        "longitude": "-9.215977"
    },
    {
        "id": "7a72e0ec-c636-4dba-9d56-fe33880ad17c",
        "name": "Las Vegas",
        "countryName": "USA",
        "imageURL": "seneca-image-cdn:///memory-location-images/Las%20Vegas%2C%20USA-min.jpg",
        "latitude": "36.169941",
        "longitude": "-115.13983"
    },
    {
        "id": "7632ba28-923d-42cb-a0e4-12e59f91ac0a",
        "name": "Mamanuca Islands",
        "countryName": "Fiji",
        "imageURL": "seneca-image-cdn:///memory-location-images/Mamanuca%20Islands%2C%20Fiji-min.jpg",
        "latitude": "-17.61888",
        "longitude": "177.179356"
    },
    {
        "id": "42d98743-ad58-47bc-a810-0aea79cae267",
        "name": "Murchison Falls",
        "countryName": "Uganda",
        "imageURL": "seneca-image-cdn:///memory-location-images/Murchison%20Falls%2C%20Uganda-min.jpg",
        "latitude": "2.278482",
        "longitude": "31.685496"
    },
    {
        "id": "bdb2b263-caef-4860-b63c-d2fb325f7bdd",
        "name": "Monte Titano",
        "countryName": "San Marino",
        "imageURL": "seneca-image-cdn:///memory-location-images/11thFebOnwards/Monte%20Titano%2C%20San%20Marino-min.jpg",
        "latitude": "43.94236",
        "longitude": "12.457777"
    },
    {
        "id": "586d3e83-a01b-43ea-9fcd-4278602565c9",
        "name": "Hallgrimskirkja",
        "countryName": "Iceland",
        "imageURL": "seneca-image-cdn:///memory-location-images/Hallgrimskirkja%2C%20Iceland-min.jpg",
        "latitude": "64.141715",
        "longitude": "-21.926637"
    },
    {
        "id": "71244c45-06b4-4b1c-bd56-2c3ff15247c5",
        "name": "Vasa Museum",
        "countryName": "Sweden",
        "imageURL": "seneca-image-cdn:///memory-location-images/13thMarch/Vasa%20Museum%2C%20Sweden-min.jpg",
        "latitude": "59.328023",
        "longitude": "18.091396"
    },
    {
        "id": "befac782-09ce-4a73-a4d8-0112831190d4",
        "name": "Kirstenbosch",
        "countryName": "South Africa",
        "imageURL": "seneca-image-cdn:///memory-location-images/Kirstenbosch%2C%20South%20Africa-min.jpg",
        "latitude": "-33.987501",
        "longitude": "18.432722"
    },
    {
        "id": "ea3d3001-2755-4bcc-97eb-eb3cd1158664",
        "name": "Penshaw Monument",
        "countryName": "UK",
        "imageURL": "seneca-image-cdn:///memory-location-images/13thMarch/Penshaw%20Monument%2C%20UK-min.jpg",
        "latitude": "54.883072",
        "longitude": "-1.480799"
    },
    {
        "id": "6e61a87d-6279-4923-bfb9-c95486b56d7c",
        "name": "Dushanbe",
        "countryName": "Tajikistan",
        "imageURL": "seneca-image-cdn:///memory-location-images/Dushanbe%2C%20Tajikistan-min.jpg",
        "latitude": "38.559772",
        "longitude": "68.787038"
    },
    {
        "id": "86de671b-b2ae-4e4e-a405-56959f899414",
        "name": "Hohenwerfen",
        "countryName": "Austria",
        "imageURL": "seneca-image-cdn:///memory-location-images/Hohenwerfen%2C%20Austria-min.jpg",
        "latitude": "47.482932",
        "longitude": "13.188959"
    },
    {
        "id": "d488a6fb-8529-4e71-95e8-b1486c339da5",
        "name": "Valparaiso",
        "countryName": "Chile",
        "imageURL": "seneca-image-cdn:///memory-location-images/Valparaiso%2C%20Chile-min.jpg",
        "latitude": "-33.047238",
        "longitude": "-71.612688"
    },
    {
        "id": "ad6dd1f1-db3d-45b7-a5ad-3c954fcb5c2d",
        "name": "Gripsholm Castle",
        "countryName": "Sweden",
        "imageURL": "seneca-image-cdn:///memory-location-images/Gripsholm%20Castle%2C%20Uganda-min.jpg",
        "latitude": "59.25596",
        "longitude": "17.219151"
    },
    {
        "id": "2f3bbe43-e5e1-4e51-9a6b-ca0d88e68e1c",
        "name": "Cappadocia",
        "countryName": "Turkey",
        "imageURL": "seneca-image-cdn:///memory-location-images/Cappadocia%2C%20Turkey-min.jpg",
        "latitude": "38.457161",
        "longitude": "34.752277"
    },
    {
        "id": "1a63c027-b0a3-40f4-b62c-ba106815f6a8",
        "name": "Dolomite Drive",
        "countryName": "Italy",
        "imageURL": "seneca-image-cdn:///memory-location-images/Dolomite%20Drive%2C%20Italy-min.jpg",
        "latitude": "46.399638",
        "longitude": "11.860617"
    },
    {
        "id": "339fb3f3-6836-4dd7-be31-8bc92f538887",
        "name": "Malé",
        "countryName": "The Maldives",
        "imageURL": "seneca-image-cdn:///memory-location-images/The%20Maldives-min%2Cw_750.jpeg",
        "latitude": "3.202778",
        "longitude": "73.22068"
    },
    {
        "id": "5fb50d5e-988e-4860-a6c0-d7f7f3618fee",
        "name": "Nagoya Castle",
        "countryName": "Japan",
        "imageURL": "seneca-image-cdn:///memory-location-images/Nagoya%20Castle%2C%20Japan-min%2Cw_750.jpeg",
        "latitude": "35.183766",
        "longitude": "136.900294"
    },
    {
        "id": "bcc0fd02-e083-42b4-8b69-987f39143410",
        "name": "Miyajima",
        "countryName": "Japan",
        "imageURL": "seneca-image-cdn:///memory-location-images/Miyajima%2C%20Japan-min.jpg",
        "latitude": "34.27966",
        "longitude": "132.311404"
    },
    {
        "id": "6127d9bb-61ce-418f-b059-d3696c81e2fd",
        "name": "San Jose",
        "countryName": "Costa Rica",
        "imageURL": "seneca-image-cdn:///memory-location-images/11thFebOnwards/San%20Jose%2C%20Costa%20Rica-min.jpg",
        "latitude": "9.928069",
        "longitude": "-84.090725"
    },
    {
        "id": "2a2cb439-9e0d-434d-8abf-0a23f99decd9",
        "name": "Majorelle",
        "countryName": "Morocco",
        "imageURL": "seneca-image-cdn:///memory-location-images/Majorelle%2C%20Morocco-min.jpg",
        "latitude": "31.641749",
        "longitude": "-8.002832"
    },
    {
        "id": "41ae639d-1436-421d-95a4-9b2967b13c23",
        "name": "Rome",
        "countryName": "Italy",
        "imageURL": "seneca-image-cdn:///memory-location-images/Rome%2C%20Italy-min%2Cw_750.jpeg",
        "latitude": "41.89021",
        "longitude": "12.492231"
    },
    {
        "id": "3f1f2b4c-d6c5-46f2-916c-d94e7e36eb9d",
        "name": "Arkhangai",
        "countryName": "Mongolia",
        "imageURL": "seneca-image-cdn:///memory-location-images/13thMarch/Arkhangai%2C%20Mongolia-min.jpg",
        "latitude": "47.89711",
        "longitude": "100.724017"
    },
    {
        "id": "bf9ce0af-b735-4ba2-b3d5-8326bf8267bf",
        "name": "Whiteless Pike",
        "countryName": "UK",
        "imageURL": "seneca-image-cdn:///memory-location-images/13thMarch/Whiteless%20Pike%2C%20UK-min.jpg",
        "latitude": "54.55867",
        "longitude": "-3.26951"
    },
    {
        "id": "61bdcc24-0944-4a9d-854e-6eeae4d08e4b",
        "name": "Kazan",
        "countryName": "Russia",
        "imageURL": "seneca-image-cdn:///memory-location-images/Kazan%2C%20Russia-min.jpg",
        "latitude": "55.830431",
        "longitude": "49.066081"
    },
    {
        "id": "f9337e64-f62e-44d5-b9ce-0167a766dda1",
        "name": "Naxos",
        "countryName": "Greece",
        "imageURL": "seneca-image-cdn:///memory-location-images/11thFebOnwards/Naxos%2C%20Greece-min.jpg",
        "latitude": "37.103566",
        "longitude": "25.377673"
    },
    {
        "id": "3b49db04-fd0c-433d-9d2a-bfc13bd28e0b",
        "name": "Sheikh Zayed Mosque",
        "countryName": "Abu Dhabi",
        "imageURL": "seneca-image-cdn:///memory-location-images/Sheikh%20Zayed%20Mosque%2C%20Abu%20Dhabi-min.jpg",
        "latitude": "24.412453",
        "longitude": "54.474958"
    },
    {
        "id": "ba9f2915-b46f-4bfc-b417-31a14a88405d",
        "name": "The Great Blue Hole",
        "countryName": "Belize",
        "imageURL": "seneca-image-cdn:///memory-location-images/The%20Great%20Blue%20Hole%2C%20Belize-min.jpg",
        "latitude": "17.316048",
        "longitude": "-87.535144"
    },
    {
        "id": "d22de643-0bc0-4b47-933c-f6fd8dd305b5",
        "name": "Prambanan",
        "countryName": "Indonesia",
        "imageURL": "seneca-image-cdn:///memory-location-images/11thFebOnwards/Prambanan%2C%20Indonesia-min.jpg",
        "latitude": "-7.752021",
        "longitude": "110.491467"
    },
    {
        "id": "d44c188a-2309-4726-a9dc-751ddf80ff42",
        "name": "Copper Canyon",
        "countryName": "Mexico",
        "imageURL": "seneca-image-cdn:///memory-location-images/Copper%20Canyon%2C%20Mexico-min.jpg",
        "latitude": "27.184655",
        "longitude": "-108.155147"
    },
    {
        "id": "954b5408-eb59-4340-9432-abf4e65cb1bb",
        "name": "Lake Skadar",
        "countryName": "Albania",
        "imageURL": "seneca-image-cdn:///memory-location-images/Lake%20Skadar%2C%20Albania-min.jpg",
        "latitude": "42.183702",
        "longitude": "19.291498"
    },
    {
        "id": "b56384dd-7f74-48b9-954a-4c6d933796fe",
        "name": "Delos",
        "countryName": "Greece",
        "imageURL": "seneca-image-cdn:///memory-location-images/Delos%2C%20Greece-min.jpg",
        "latitude": "37.396262",
        "longitude": "25.268941"
    },
    {
        "id": "097ada1c-c7ec-4e64-bf31-dec800b233a6",
        "name": "Riga",
        "countryName": "Latvia",
        "imageURL": "seneca-image-cdn:///memory-location-images/11thFebOnwards/Riga%2C%20Latvia-min.jpg",
        "latitude": "56.949649",
        "longitude": "24.105186"
    },
    {
        "id": "86bc493f-7339-4112-bb4e-1e477a7d681c",
        "name": "Pinnawala",
        "countryName": "Sri Lanka",
        "imageURL": "seneca-image-cdn:///memory-location-images/11thFebOnwards/Pinnawala%2C%20Sri%20Lanka-min.jpg",
        "latitude": "7.301495",
        "longitude": "80.386742"
    },
    {
        "id": "4f6b4434-2726-476b-b0ff-57214b221efb",
        "name": "Portmeirion",
        "countryName": "UK",
        "imageURL": "seneca-image-cdn:///memory-location-images/13thMarch/Portmeirion%2C%20UK-min.jpg",
        "latitude": "52.914499",
        "longitude": "-4.097332"
    },
    {
        "id": "05615cbb-046f-486e-b917-fcf120cae62c",
        "name": "Barossa Valley",
        "countryName": "Australia",
        "imageURL": "seneca-image-cdn:///memory-location-images/Barossa%20Valley%2C%20Australia-min.jpg",
        "latitude": "-34.533333",
        "longitude": "138.95"
    },
    {
        "id": "ea7c6fab-a6f5-468f-884b-36cdbf04bc24",
        "name": "Hoi An",
        "countryName": "Vietnam",
        "imageURL": "seneca-image-cdn:///memory-location-images/Hoi%20An%2C%20Vietnam-min.jpg",
        "latitude": "15.880058",
        "longitude": "108.338047"
    },
    {
        "id": "676438b7-6ecb-4511-a923-6082d7abf243",
        "name": "Mount Fuji",
        "countryName": "Japan",
        "imageURL": "seneca-image-cdn:///memory-location-images/Mount%20Fuji%2C%20Japan-min%2Cw_750.jpeg",
        "latitude": "35.360555",
        "longitude": "138.727778"
    },
    {
        "id": "f86be397-a1f4-4bec-ab49-625f51ac10d6",
        "name": "Perth",
        "countryName": "Australia",
        "imageURL": "seneca-image-cdn:///memory-location-images/Perth%2C%20Australia-min%2Cw_750.jpeg",
        "latitude": "-31.950527",
        "longitude": "115.860457"
    },
    {
        "id": "c38bddd3-f070-475a-b702-dcd442e31022",
        "name": "Hong Kong",
        "countryName": "Hong Kong",
        "imageURL": "seneca-image-cdn:///memory-location-images/Hong%20Kong%2C%20Hong%20Kong-min%2Cw_750.jpeg",
        "latitude": "22.396428",
        "longitude": "114.109497"
    },
    {
        "id": "8c7ec418-ff8a-4334-886c-52b32f842cbd",
        "name": "Itaipu",
        "countryName": "Brazil",
        "imageURL": "seneca-image-cdn:///memory-location-images/Itaipu%20Dam%2C%20Brazil-min.jpg",
        "latitude": "-25.407239",
        "longitude": "-54.594755"
    },
    {
        "id": "2063a780-eaa4-4886-b318-8f9c2f13f26a",
        "name": "Hotel Gellert",
        "countryName": "Hungary",
        "imageURL": "seneca-image-cdn:///memory-location-images/Hotel%20Gellert%2C%20Hungary-min.jpg",
        "latitude": "47.483766",
        "longitude": "19.052308"
    },
    {
        "id": "c5f27a01-5b13-4c6e-a5ad-6e05a565c88c",
        "name": "Kylemore Abbey",
        "countryName": "Ireland",
        "imageURL": "seneca-image-cdn:///memory-location-images/Kylemore%20Abbey%2C%20Ireland-min.jpg",
        "latitude": "53.561639",
        "longitude": "-9.889313"
    },
    {
        "id": "f5517f8e-7ccf-42fa-824f-edab74de2cd4",
        "name": "Hardangerfjord",
        "countryName": "Norway",
        "imageURL": "seneca-image-cdn:///memory-location-images/Hardangerfjord%2C%20Norway-min.jpg",
        "latitude": "60.225305",
        "longitude": "6.058249"
    },
    {
        "id": "6ea139b7-bd21-4452-bd12-0537ed1b923a",
        "name": "Versailles",
        "countryName": "France",
        "imageURL": "seneca-image-cdn:///memory-location-images/Versailles%2C%20France-min.jpg",
        "latitude": "48.804865",
        "longitude": "2.120355"
    },
    {
        "id": "1303473e-056e-42d2-9735-fcee0b71f3ff",
        "name": "Glastonbury",
        "countryName": "England",
        "imageURL": "seneca-image-cdn:///memory-location-images/Glastonbury%2C%20England-min.jpg",
        "latitude": "51.147427",
        "longitude": "-2.718454"
    },
    {
        "id": "ebfe7ff8-76b7-4c4d-863d-52b8df9726e7",
        "name": "Westerkerk",
        "countryName": "Netherlands",
        "imageURL": "seneca-image-cdn:///memory-location-images/13thMarch/Westerkerk%2C%20Netherlands-min.jpg",
        "latitude": "52.374534",
        "longitude": "4.883971"
    },
    {
        "id": "c22a9375-85df-44f3-b02c-57b006ae3217",
        "name": "Dunluce Castle",
        "countryName": "UK",
        "imageURL": "seneca-image-cdn:///memory-location-images/13thMarch/Dunluce%20Castle%2C%20UK-min.jpg",
        "latitude": "55.210692",
        "longitude": "-6.579606"
    },
    {
        "id": "acb3724b-3bb8-4da7-b5d2-3926cd154631",
        "name": "Alborg",
        "countryName": "Denmark",
        "imageURL": "seneca-image-cdn:///memory-location-images/13thMarch/Alborg%2C%20Denmark-min.jpg",
        "latitude": "57.04882",
        "longitude": "9.921747"
    },
    {
        "id": "e2cd5127-7513-411b-af73-3fd25955652d",
        "name": "La Pointe",
        "countryName": "St Lucia",
        "imageURL": "seneca-image-cdn:///memory-location-images/13thMarch/La%20Pointe%2C%20St%20Lucia-min.jpg",
        "latitude": "13.792171",
        "longitude": "-61.065331"
    },
    {
        "id": "b57c8692-6101-48ba-b754-7373d35b58a9",
        "name": "Amazon Rainforest",
        "countryName": "Brazil",
        "imageURL": "seneca-image-cdn:///memory-location-images/Amazon%20Rainforest%2C%20Brazil-min.jpg",
        "latitude": "-3.465305",
        "longitude": "-62.215881"
    },
    {
        "id": "85cf5a26-7e4b-4f5b-a99d-48c91717a4f9",
        "name": "Mount Rushmore",
        "countryName": "USA",
        "imageURL": "seneca-image-cdn:///memory-location-images/Mount%20Rushmore%2C%20USA-min%2Cw_750.jpg",
        "latitude": "43.879102",
        "longitude": "-103.459067"
    },
    {
        "id": "7264a5ad-cfb8-4501-a5f1-8a4e052e2be0",
        "name": "Guilin",
        "countryName": "China",
        "imageURL": "seneca-image-cdn:///memory-location-images/13thMarch/Guilin%2C%20China-min.jpg",
        "latitude": "25.234479",
        "longitude": "110.179953"
    },
    {
        "id": "e65032e0-9aee-4ec9-aa01-f05e63011806",
        "name": "Suzhou",
        "countryName": "China",
        "imageURL": "seneca-image-cdn:///memory-location-images/Suzhou%2C%20China-min.jpg",
        "latitude": "31.270508",
        "longitude": "120.632865"
    },
    {
        "id": "204d2d09-01da-4046-bbf9-16cf864ca45e",
        "name": "Flemington Racecourse",
        "countryName": "Australia",
        "imageURL": "seneca-image-cdn:///memory-location-images/Flemington%20Racecourse%2C%20Australia-min.jpg",
        "latitude": "-37.785",
        "longitude": "144.928"
    },
    {
        "id": "74084a29-83a3-478d-8a16-9cd043b2c3de",
        "name": "London",
        "countryName": "England",
        "imageURL": "seneca-image-cdn:///memory-location-images/London%2C%20UK-min%2Cw_750.jpeg",
        "latitude": "51.507351",
        "longitude": "-0.127758"
    },
    {
        "id": "205a4663-fd17-4a3c-88a8-1925c1ea3f04",
        "name": "Kiruna",
        "countryName": "Sweden",
        "imageURL": "seneca-image-cdn:///memory-location-images/13thMarch/Kiruna%2C%20Sweden-min.jpg",
        "latitude": "67.8558",
        "longitude": "20.225282"
    },
    {
        "id": "33558a13-8b7b-454c-a730-22487e159376",
        "name": "San Sebastian",
        "countryName": "Spain",
        "imageURL": "seneca-image-cdn:///memory-location-images/11thFebOnwards/San%20Sebastian%2C%20Spain-min.jpg",
        "latitude": "43.318334",
        "longitude": "-1.981231"
    },
    {
        "id": "58385a25-e8a6-448b-8445-713a85085217",
        "name": "La Digue",
        "countryName": "Seychelles",
        "imageURL": "seneca-image-cdn:///memory-location-images/La%20Digue%2C%20Seychelles-min.jpg",
        "latitude": "4.359097",
        "longitude": "55.841242"
    },
    {
        "id": "3805f773-49a8-43fd-ae62-c1662f06393b",
        "name": "Tivoli Gardens",
        "countryName": "Italy",
        "imageURL": "seneca-image-cdn:///memory-location-images/11thFebOnwards/Tivoli%20Gardens%2C%20Italy-min.jpg",
        "latitude": "41.963310",
        "longitude": "12.795806"
    },
    {
        "id": "59a0fab2-8acf-4f6f-b810-29b4f58f02e7",
        "name": "Varanasi",
        "countryName": "India",
        "imageURL": "seneca-image-cdn:///memory-location-images/13thMarch/Varanasi%2C%20India-min.jpg",
        "latitude": "25.317645",
        "longitude": "82.973914"
    },
    {
        "id": "7176dc84-21e7-41fc-933d-ba24784c631b",
        "name": "Stone Town",
        "countryName": "Zanzibar",
        "imageURL": "seneca-image-cdn:///memory-location-images/Stone%20Town%2C%20Zanzibar-min.jpg",
        "latitude": "-6.162222",
        "longitude": "39.192073"
    },
    {
        "id": "a6d1f74a-9fe2-42ac-a38d-d272af287dcf",
        "name": "Symi",
        "countryName": "Greece",
        "imageURL": "seneca-image-cdn:///memory-location-images/Symi%2C%20Greece-min.jpg",
        "latitude": "36.585572",
        "longitude": "27.842865"
    },
    {
        "id": "d67645c4-5c74-4bef-98be-e60956bf2c2b",
        "name": "The Louvre",
        "countryName": "France",
        "imageURL": "seneca-image-cdn:///memory-location-images/The%20Louvre%2C%20France-min.jpg",
        "latitude": "48.860611",
        "longitude": "2.337644"
    },
    {
        "id": "93ce107e-55ad-4b24-b7fc-d599617d0055",
        "name": "Sevilla",
        "countryName": "Spain",
        "imageURL": "seneca-image-cdn:///memory-location-images/11thFebOnwards/Sevilla%2C%20Spain-min.jpg",
        "latitude": "37.389092",
        "longitude": "-5.984459"
    },
    {
        "id": "36aa5baa-6056-4dfb-ba5c-7bcc76629e0c",
        "name": "Panama Canal",
        "countryName": "Panama",
        "imageURL": "seneca-image-cdn:///memory-location-images/Panama%20Canal%2C%20Panama-min.jpg",
        "latitude": "9.143803",
        "longitude": "-79.728516"
    },
    {
        "id": "699706fa-2f95-418f-a034-5a76d324aa02",
        "name": "Godafoss Waterfall",
        "countryName": "Iceland",
        "imageURL": "seneca-image-cdn:///memory-location-images/Godafoss%20Waterfall%2C%20Iceland-min.jpg",
        "latitude": "65.682778",
        "longitude": "-17.550192"
    },
    {
        "id": "176a7865-f30f-4647-9fd9-688d70c5a921",
        "name": "Prairies",
        "countryName": "Wyoming",
        "imageURL": "seneca-image-cdn:///memory-location-images/Prairies%2C%20Wyoming-min.jpg",
        "latitude": "42.508566",
        "longitude": "-104.203487"
    },
    {
        "id": "d5b61106-98e4-4f67-b5a6-50e9993a66ef",
        "name": "Wormsloe",
        "countryName": "USA",
        "imageURL": "seneca-image-cdn:///memory-location-images/13thMarch/Wormsloe%2C%20USA-min.jpg",
        "latitude": "31.980193",
        "longitude": "-81.069239"
    },
    {
        "id": "1cff3ee0-2a40-4e0f-9626-cf9b2417a2e9",
        "name": "Manaus",
        "countryName": "Brazil",
        "imageURL": "seneca-image-cdn:///memory-location-images/Manaus%2C%20Brazil-min.jpg",
        "latitude": "-3.119028",
        "longitude": "-60.021731"
    },
    {
        "id": "3caa0922-87d6-421f-be44-4bc5e777c56d",
        "name": "Rundale Palace",
        "countryName": "Latvia",
        "imageURL": "seneca-image-cdn:///memory-location-images/Rundale%20Palace%2C%20Latvia-min.jpg",
        "latitude": "56.413433",
        "longitude": "24.024491"
    },
    {
        "id": "c9bbf181-0def-4a66-85cf-5536bb501974",
        "name": "Oresund Bridge",
        "countryName": "Denmark",
        "imageURL": "seneca-image-cdn:///memory-location-images/11thFebOnwards/Oresund%20Bridge%2C%20Denmark-min.jpg",
        "latitude": "55.570629",
        "longitude": "12.848637"
    },
    {
        "id": "d7190aab-cc50-4555-b1cc-995fa4bd90b4",
        "name": "Giant's Causeway",
        "countryName": "UK",
        "imageURL": "seneca-image-cdn:///memory-location-images/Giant_s%20Causeway%2C%20UK-min%2Cw_750.jpeg",
        "latitude": "55.240807",
        "longitude": "-6.511555"
    },
    {
        "id": "e872caaa-c13d-48dc-abac-108e95efe4f6",
        "name": "My Son Sanctuary",
        "countryName": "Vietnam",
        "imageURL": "seneca-image-cdn:///memory-location-images/11thFebOnwards/My%20Son%20Sanctuary%2C%20Vietnam-min.jpg",
        "latitude": "15.79072",
        "longitude": "108.107871"
    },
    {
        "id": "8dc84cb5-ba8e-43e7-b422-a95cfb285e64",
        "name": "Pyramid of the Sun",
        "countryName": "Mexico",
        "imageURL": "seneca-image-cdn:///memory-location-images/11thFebOnwards/Pyramid%20of%20the%20Sun%2C%20Mexico-min.jpg",
        "latitude": "19.692273",
        "longitude": "-98.843503"
    },
    {
        "id": "32c6f051-4f34-4b3d-87f4-732783cb043b",
        "name": "Firgas",
        "countryName": "Spain",
        "imageURL": "seneca-image-cdn:///memory-location-images/11thFebOnwards/Firgas%2C%20Spain-min.jpg",
        "latitude": "27.92022",
        "longitude": "-15.547437"
    },
    {
        "id": "835e3fc1-0f49-47c0-8386-d7efe6a8f3ab",
        "name": "Himeji",
        "countryName": "Japan",
        "imageURL": "seneca-image-cdn:///memory-location-images/Himeji%2C%20Japan-min.jpg",
        "latitude": "34.815149",
        "longitude": "134.685353"
    },
    {
        "id": "7a6cde53-babe-41a5-922c-0015dd599816",
        "name": "Tallinn",
        "countryName": "Estonia",
        "imageURL": "seneca-image-cdn:///memory-location-images/Tallinn%2C%20Estonia-min.jpg",
        "latitude": "59.436961",
        "longitude": "24.753575"
    },
    {
        "id": "59da38ce-aa76-479b-a747-756f52a21d5f",
        "name": "Yucatan",
        "countryName": "Mexico",
        "imageURL": "seneca-image-cdn:///memory-location-images/Yucatan%2C%20Mexico-min.jpg",
        "latitude": "20.709879",
        "longitude": "-89.094338"
    },
    {
        "id": "c7598adc-52e7-4799-8bd1-f76672838d7b",
        "name": "Ouzoud Waterfall",
        "countryName": "Morocco",
        "imageURL": "seneca-image-cdn:///memory-location-images/11thFebOnwards/Ouzoud%20Waterfall%2C%20Morocco-min.jpg",
        "latitude": "32.015298",
        "longitude": "-6.719756"
    },
    {
        "id": "6bb2d48a-64d6-4eec-843f-7df8a4f0fa8a",
        "name": "Monteverde",
        "countryName": "Costa Rica",
        "imageURL": "seneca-image-cdn:///memory-location-images/13thMarch/Monteverde%2C%20Costa%20Rica-min.jpg",
        "latitude": "10.274968",
        "longitude": "-84.82551"
    },
    {
        "id": "133684e1-e044-4f0e-bba2-45967906dada",
        "name": "Zanzibar",
        "countryName": "Tanzania",
        "imageURL": "seneca-image-cdn:///memory-location-images/Zanzibar%2C%20Tanzania-min.jpg",
        "latitude": "-6.13573",
        "longitude": "39.36212"
    },
    {
        "id": "58665931-4bea-44c6-bf7c-d2b0ff3aa799",
        "name": "Bukchon Hanok Village",
        "countryName": "South Korea",
        "imageURL": "seneca-image-cdn:///memory-location-images/13thMarch/Bukchon%20Hanok%20Village%2C%20South%20Korea-min.jpg",
        "latitude": "37.579031",
        "longitude": "126.986408"
    },
    {
        "id": "f126680a-9ef2-4242-a711-e7916ac79255",
        "name": "Fish River Canyon",
        "countryName": "Namibia",
        "imageURL": "seneca-image-cdn:///memory-location-images/13thMarch/Fish%20River%20Canyon%2C%20Namibia-min.jpg",
        "latitude": "-27.782379",
        "longitude": "17.606689"
    },
    {
        "id": "9640bb53-155d-4c74-8f44-43828d228b8f",
        "name": "Taipei",
        "countryName": "Taiwan",
        "imageURL": "seneca-image-cdn:///memory-location-images/Taipei%2C%20Taiwan-min.jpg",
        "latitude": "25.032969",
        "longitude": "121.565418"
    },
    {
        "id": "5ed078b1-8f5e-4e43-9dbd-7c8f3ad33106",
        "name": "Zahir",
        "countryName": "Malaysia",
        "imageURL": "seneca-image-cdn:///memory-location-images/13thMarch/Zahir%2C%20Malaysia-min.jpg",
        "latitude": "6.120396",
        "longitude": "100.365216"
    },
    {
        "id": "edbadbdf-64c0-4d84-b9b0-cdfb98e89931",
        "name": "Quebec City",
        "countryName": "Canada",
        "imageURL": "seneca-image-cdn:///memory-location-images/11thFebOnwards/Quebec%20City%2C%20Canada-min.jpg",
        "latitude": "46.813878",
        "longitude": "-71.207981"
    },
    {
        "id": "7188c019-d40b-418a-bf1f-fa65f6dbbdd8",
        "name": "Avenue of the Baobabs",
        "countryName": "Madagascar",
        "imageURL": "seneca-image-cdn:///memory-location-images/Avenue%20of%20the%20Baobabs%2C%20Madagascar-min%2Cw_750.jpeg",
        "latitude": "-20.249806",
        "longitude": "44.419393"
    },
    {
        "id": "35d9c1d5-1bf9-48c8-9e10-3ffe3cc142f0",
        "name": "Knossos",
        "countryName": "Crete",
        "imageURL": "seneca-image-cdn:///memory-location-images/Knossos%2C%20Crete-min.jpg",
        "latitude": "35.29848",
        "longitude": "25.159556"
    },
    {
        "id": "002d138e-e4aa-408b-bd69-e427a67f59bb",
        "name": "The Sea",
        "countryName": "Earth",
        "imageURL": "seneca-image-cdn:///memory-location-images/The%20Sea%2C%20Earth-min%2Cw_750.jpg",
        "latitude": "29.698843",
        "longitude": "-40.032812"
    },
    {
        "id": "4ab6e8a1-078d-4701-99c4-07ff6de8341e",
        "name": "Potsdam",
        "countryName": "Germany",
        "imageURL": "seneca-image-cdn:///memory-location-images/11thFebOnwards/Potsdam%2C%20Germany-min.jpg",
        "latitude": "52.390569",
        "longitude": "13.064473"
    },
    {
        "id": "07151404-579a-4ab6-bb21-17273fa1b0b0",
        "name": "Sevastopol",
        "countryName": "Ukraine",
        "imageURL": "seneca-image-cdn:///memory-location-images/11thFebOnwards/Sevastopol%2C%20Ukraine-min.jpg",
        "latitude": "44.61665",
        "longitude": "33.525367"
    },
    {
        "id": "ddf5cc02-903a-46ad-810d-05714ec102a1",
        "name": "Topkapi Palace",
        "countryName": "Turkey",
        "imageURL": "seneca-image-cdn:///memory-location-images/11thFebOnwards/Topkapi%2C%20Turkey-min.jpg",
        "latitude": "41.011519",
        "longitude": "28.983379"
    },
    {
        "id": "faaa5eea-c018-400f-bfb3-a1fef6392ec2",
        "name": "Havana",
        "countryName": "Cuba",
        "imageURL": "seneca-image-cdn:///memory-location-images/Havana%2C%20Cuba-min%2Cw_750.jpeg",
        "latitude": "23.1136",
        "longitude": "-82.3666"
    },
    {
        "id": "53acb8a4-2df6-4298-bce2-705499ef7f8c",
        "name": "Obidos",
        "countryName": "Portugal",
        "imageURL": "seneca-image-cdn:///memory-location-images/Obidos%2C%20Portugal-min.jpg",
        "latitude": "39.360421",
        "longitude": "-9.158201"
    },
    {
        "id": "55ad1aac-bb46-4a34-a9d7-a5a23b8bc0a7",
        "name": "Jal Mahal",
        "countryName": "India",
        "imageURL": "seneca-image-cdn:///memory-location-images/13thMarch/Jal%20Mahal%2C%20India-min.jpg",
        "latitude": "26.953457",
        "longitude": "75.846174"
    },
    {
        "id": "7d2f24df-d69e-4d32-a79d-b25906e769fd",
        "name": "Turku",
        "countryName": "Finland",
        "imageURL": "seneca-image-cdn:///memory-location-images/13thMarch/Turku%2C%20Finland-min.jpg",
        "latitude": "60.451813",
        "longitude": "22.26663"
    },
    {
        "id": "a745bdef-f31a-4ba6-a4b8-9ddfc88699bf",
        "name": "Blue Mosque",
        "countryName": "Turkey",
        "imageURL": "seneca-image-cdn:///memory-location-images/Blue%20Mosque%2C%20Turkey-min.jpg",
        "latitude": "41.00541",
        "longitude": "28.976814"
    },
    {
        "id": "ee9fbc4b-22d3-4fc6-9858-2634c42fd068",
        "name": "Atlantis",
        "countryName": "UAE",
        "imageURL": "seneca-image-cdn:///memory-location-images/Atlantis%2C%20UAE-min.jpg",
        "latitude": "25.130443",
        "longitude": "55.11715"
    },
    {
        "id": "f397002b-3869-47c3-815e-5d851e03d273",
        "name": "Casarabonela",
        "countryName": "Malaga",
        "imageURL": "seneca-image-cdn:///memory-location-images/Casarabonela%2C%20Malaga-min.jpg",
        "latitude": "36.785243",
        "longitude": "-4.842342"
    },
    {
        "id": "e4fc77a6-86b5-4ac8-afe8-16cd0a91b864",
        "name": "Takeda Castle",
        "countryName": "Japan",
        "imageURL": "seneca-image-cdn:///memory-location-images/11thFebOnwards/Takeda%20Castle%2C%20Japan-min.jpg",
        "latitude": "35.300604",
        "longitude": "134.829168"
    },
    {
        "id": "699abf54-59d2-42d3-a2a9-0d7f2ce9b2d0",
        "name": "Bay of Fires",
        "countryName": "Australia",
        "imageURL": "seneca-image-cdn:///memory-location-images/13thMarch/Bay%20of%20Fires%2C%20Australia-min.jpg",
        "latitude": "-41.1616212",
        "longitude": "148.2924592"
    },
    {
        "id": "83b59a33-153c-4897-91b5-ddc83a516b14",
        "name": "San Francisco",
        "countryName": "USA",
        "imageURL": "seneca-image-cdn:///memory-location-images/San%20Francisco%2C%20USA-min%2Cw_750.jpeg",
        "latitude": "37.819929",
        "longitude": "-122.478255"
    },
    {
        "id": "f669259c-ee10-4de1-96d4-0804c437ee55",
        "name": "Maloja Pass",
        "countryName": "Switzerland",
        "imageURL": "seneca-image-cdn:///memory-location-images/Maloja%20Pass%2C%20Switzerland-min%2Cw_750.jpeg",
        "latitude": "46.4",
        "longitude": "9.69575"
    },
    {
        "id": "04df81e6-f948-4175-8d0f-675729ce100d",
        "name": "Glasgow",
        "countryName": "UK",
        "imageURL": "seneca-image-cdn:///memory-location-images/Glasgow%2C%20UK-min.jpg",
        "latitude": "55.864237",
        "longitude": "-4.251806"
    },
    {
        "id": "3fc9475f-3f41-4680-a746-07f3a55031c0",
        "name": "Port Arthur",
        "countryName": "Tasmania",
        "imageURL": "seneca-image-cdn:///memory-location-images/11thFebOnwards/Port%20Arthur%2C%20Tasmania-min.jpg",
        "latitude": "-43.1499994",
        "longitude": "147.8499966"
    },
    {
        "id": "1b3b75ee-6fb9-4264-845d-55717ea44e15",
        "name": "Jeddah",
        "countryName": "Saudi Arabia",
        "imageURL": "seneca-image-cdn:///memory-location-images/Jeddah%2C%20Saudi%20Arabia-min.jpg",
        "latitude": "21.285407",
        "longitude": "39.237551"
    },
    {
        "id": "dd5e4305-8e5d-45fd-8237-a2214227d16d",
        "name": "Brac",
        "countryName": "Croatia",
        "imageURL": "seneca-image-cdn:///memory-location-images/Brac%2C%20Croatia-min.jpg",
        "latitude": "43.3049",
        "longitude": "16.6527"
    },
    {
        "id": "cc86d175-b11a-475a-8849-3f29a33a0540",
        "name": "Hallstatt",
        "countryName": "Austria",
        "imageURL": "seneca-image-cdn:///memory-location-images/Hallstatt%2C%20Austria-min.jpg",
        "latitude": "47.562234",
        "longitude": "13.649262"
    },
    {
        "id": "1891b0f1-6fc8-4aea-ae81-74ccdd13e2a0",
        "name": "The Kremlin",
        "countryName": "Russia",
        "imageURL": "seneca-image-cdn:///memory-location-images/The%20Kremlin%2C%20Russia-min.jpg",
        "latitude": "55.752023",
        "longitude": "37.617499"
    },
    {
        "id": "bb28207d-a5bf-4327-8329-68a77abe4a58",
        "name": "Hanoi",
        "countryName": "Vietnam",
        "imageURL": "seneca-image-cdn:///memory-location-images/Hanoi%2C%20Vietnam-min.jpg",
        "latitude": "21.027764",
        "longitude": "105.83416"
    },
    {
        "id": "38e977bf-b3ae-4a77-aebd-46c04396b569",
        "name": "Naples",
        "countryName": "Italy",
        "imageURL": "seneca-image-cdn:///memory-location-images/11thFebOnwards/Naples%2C%20Italy-min.jpg",
        "latitude": "40.851775",
        "longitude": "14.268124"
    },
    {
        "id": "ba679b0b-ae92-429e-89d4-fc3b3329514a",
        "name": "Amsterdam",
        "countryName": "Netherlands",
        "imageURL": "seneca-image-cdn:///memory-location-images/Amsterdam%2C%20Netherlands-min%2Cw_750.jpg",
        "latitude": "52.370216",
        "longitude": "4.895168"
    },
    {
        "id": "532f5a22-f678-4c7e-9e52-666d89970337",
        "name": "Grossglockner Road",
        "countryName": "Austria",
        "imageURL": "seneca-image-cdn:///memory-location-images/Grossglockner%20Road%2C%20Austria-min.jpg",
        "latitude": "47.083333",
        "longitude": "12.842778"
    },
    {
        "id": "c4152ead-b2b0-4fcc-aaf6-5c96d93fdb5c",
        "name": "Brussels",
        "countryName": "Belgium",
        "imageURL": "seneca-image-cdn:///memory-location-images/Brussels%2C%20Belgium-min.jpg",
        "latitude": "50.850346",
        "longitude": "4.351721"
    },
    {
        "id": "16ed91ee-4d18-4525-a85e-9a30998870aa",
        "name": "Roskilde",
        "countryName": "Denmark",
        "imageURL": "seneca-image-cdn:///memory-location-images/13thMarch/Roskilde%2C%20Denmark-min.jpg",
        "latitude": "55.64191",
        "longitude": "12.087845"
    },
    {
        "id": "f150bb9c-b0cc-42d5-9741-508f4f74697c",
        "name": "Jerusalem",
        "countryName": "Middle East",
        "imageURL": "seneca-image-cdn:///memory-location-images/Jerusalem%2C%20Israel-min%2Cw_750.jpeg",
        "latitude": "31.768319",
        "longitude": "35.21371"
    },
    {
        "id": "8c124bed-4908-440d-be80-55997d3a99ee",
        "name": "Chhatrapati Shivaji Terminus",
        "countryName": "India",
        "imageURL": "seneca-image-cdn:///memory-location-images/Chhatrapati%20Shivaji%20Terminus%2C%20India-min.jpg",
        "latitude": "18.940288",
        "longitude": "72.835295"
    },
    {
        "id": "4f4a21e2-c930-4d5b-b157-3da8b348dc9b",
        "name": "Caral",
        "countryName": "Peru",
        "imageURL": "seneca-image-cdn:///memory-location-images/11thFebOnwards/Caral%2C%20Peru-min.jpg",
        "latitude": "-10.892069",
        "longitude": "-77.523246"
    },
    {
        "id": "b82cf262-25fd-4dd9-ae37-15725eead0ce",
        "name": "Varanasi",
        "countryName": "India",
        "imageURL": "seneca-image-cdn:///memory-location-images/Varanasi%2C%20India-min.jpg",
        "latitude": "25.317645",
        "longitude": "82.973914"
    },
    {
        "id": "7eaf90b9-7828-4fcd-a78d-33cdc14cedd9",
        "name": "Timbuktu",
        "countryName": "Mali",
        "imageURL": "seneca-image-cdn:///memory-location-images/Timbuktu%2C%20Mali-min.jpg",
        "latitude": "16.766589",
        "longitude": "-3.002561"
    },
    {
        "id": "873c517f-4be3-4651-b4b2-90b2f471c7a3",
        "name": "Mexico City",
        "countryName": "Mexico",
        "imageURL": "seneca-image-cdn:///memory-location-images/Mexico%20City%2C%20Mexico-min.jpg",
        "latitude": "19.432608",
        "longitude": "-99.133208"
    },
    {
        "id": "9ed628d0-a968-46cd-abf2-ee9f0b7f7752",
        "name": "Golconda Fort",
        "countryName": "India",
        "imageURL": "seneca-image-cdn:///memory-location-images/Golconda%20Fort%2C%20India-min.jpg",
        "latitude": "17.383309",
        "longitude": "78.401053"
    },
    {
        "id": "14304bd3-ffae-4096-80ff-9cd89d0adb95",
        "name": "Vaadhoo",
        "countryName": "Maldives",
        "imageURL": "seneca-image-cdn:///memory-location-images/13thMarch/Vaadhoo%2C%20Maldives-min.jpg",
        "latitude": "5.85701",
        "longitude": "72.992559"
    },
    {
        "id": "508894f6-1ac4-4dfd-8873-fd4a0069ed97",
        "name": "Nazca Lines",
        "countryName": "Peru",
        "imageURL": "seneca-image-cdn:///memory-location-images/11thFebOnwards/Nazca%20lines%2C%20Peru-min.jpg",
        "latitude": "-14.739027",
        "longitude": "-75.130005"
    },
    {
        "id": "36cee684-fafd-48dd-9cf9-b283d5b17b78",
        "name": "Kronborg",
        "countryName": "Denmark",
        "imageURL": "seneca-image-cdn:///memory-location-images/Kronborg%2C%20Denmark-min.jpg",
        "latitude": "56.039014",
        "longitude": "12.621155"
    },
    {
        "id": "5fe2a255-5033-450b-88c7-4b51257a90d3",
        "name": "Bratislava",
        "countryName": "Slovakia",
        "imageURL": "seneca-image-cdn:///memory-location-images/Bratislkava%2C%20Slovakia-min.jpg",
        "latitude": "48.148596",
        "longitude": "17.107748"
    },
    {
        "id": "daa9917a-7ec4-42af-aa72-573fb267ee11",
        "name": "Okavango Delta",
        "countryName": "Botswana",
        "imageURL": "seneca-image-cdn:///memory-location-images/Okavango%20Delta%2C%20Botswana-min.jpg",
        "latitude": "-19.65101",
        "longitude": "22.90588"
    },
    {
        "id": "f6a969de-3256-4926-8764-954a2e6e5b1f",
        "name": "Rio de Janeiro",
        "countryName": "Brazil",
        "imageURL": "seneca-image-cdn:///memory-location-images/Rio%20de%20Janeiro%2C%20Brazil-min%2Cw_750.jpeg",
        "latitude": "-22.906847",
        "longitude": "-43.172896"
    },
    {
        "id": "f3d31e95-7642-45ef-a32a-6b9408a8085e",
        "name": "Belgrade",
        "countryName": "Serbia",
        "imageURL": "seneca-image-cdn:///memory-location-images/Belgrade%2C%20Serbia-min.jpg",
        "latitude": "44.786568",
        "longitude": "20.448922"
    },
    {
        "id": "6b5c2572-202a-4e99-9552-ffbd2cb8d6d9",
        "name": "Loket",
        "countryName": "Czech Republic",
        "imageURL": "seneca-image-cdn:///memory-location-images/Loket%2C%20Cech%20Republic-min.jpg",
        "latitude": "50.186012",
        "longitude": "12.754063"
    },
    {
        "id": "4345dcce-e8b2-4236-b746-fb1ed40ac572",
        "name": "Jeju Island",
        "countryName": "South Korea",
        "imageURL": "seneca-image-cdn:///memory-location-images/13thMarch/Jeju%20Island%2C%20South%20Korea-min.jpg",
        "latitude": "33.489011",
        "longitude": "126.498302"
    },
    {
        "id": "a232b061-cafc-4eea-9c3c-831f0ebcd1f8",
        "name": "Patong",
        "countryName": "Thailand",
        "imageURL": "seneca-image-cdn:///memory-location-images/13thMarch/Patong%2C%20Thailand-min.jpg",
        "latitude": "7.896576",
        "longitude": "98.302104"
    },
    {
        "id": "f86e79db-c374-4958-b565-a00a6bf918a9",
        "name": "The Royal Pavillion",
        "countryName": "UK",
        "imageURL": "seneca-image-cdn:///memory-location-images/13thMarch/The%20Royal%20Pavillion%2C%20UK-min.jpg",
        "latitude": "50.822352",
        "longitude": "-0.137685"
    },
    {
        "id": "c5ac6192-fb49-48f9-a662-b9e695f10553",
        "name": "Petra",
        "countryName": "Jordan",
        "imageURL": "seneca-image-cdn:///memory-location-images/Petra%2C%20Jordan-min%2Cw_750.jpeg",
        "latitude": "30.328454",
        "longitude": "35.444362"
    },
    {
        "id": "b173cf5d-dd3b-445a-9987-f39815efb4e3",
        "name": "Shinjuku Park",
        "countryName": "Japan",
        "imageURL": "seneca-image-cdn:///memory-location-images/11thFebOnwards/Shinjuku%20Park%2C%20Japan-min.jpg",
        "latitude": "35.685176",
        "longitude": "139.710052"
    },
    {
        "id": "0a729485-c328-460e-9419-ae7c58d386b6",
        "name": "Barcelona",
        "countryName": "Spain",
        "imageURL": "seneca-image-cdn:///memory-location-images/Barcelona%2C%20Spain-min%2Cw_750.jpeg",
        "latitude": "41.385064",
        "longitude": "2.173403"
    },
    {
        "id": "bbe05840-c211-4c19-b18a-2365458a2f23",
        "name": "Nugget Point",
        "countryName": "New Zealand",
        "imageURL": "seneca-image-cdn:///memory-location-images/13thMarch/Nugget%20Point%2C%20New%20Zealand-min.jpg",
        "latitude": "-46.3866",
        "longitude": "169.782302"
    },
    {
        "id": "83aba091-87ca-4ece-9c86-408433947d08",
        "name": "Kuwait City",
        "countryName": "Kuwait",
        "imageURL": "seneca-image-cdn:///memory-location-images/Kuwait%20City%2C%20Kuwait-min.jpg",
        "latitude": "29.375859",
        "longitude": "47.977405"
    },
    {
        "id": "5df3f031-1232-4ba2-91d6-9a410f1210b9",
        "name": "Martha's Vineyard",
        "countryName": "USA",
        "imageURL": "seneca-image-cdn:///memory-location-images/Martha_s%20Vineyard%2C%20USA-min.jpg",
        "latitude": "41.380498",
        "longitude": "-70.645473"
    },
    {
        "id": "d04d633a-bc09-4569-978e-13cefa63c74c",
        "name": "Chengdu",
        "countryName": "China",
        "imageURL": "seneca-image-cdn:///memory-location-images/Chengdu%2C%20China-min.jpg",
        "latitude": "30.572815",
        "longitude": "104.066801"
    },
    {
        "id": "83ceeb4d-bd99-4540-8a67-a8bf84319b49",
        "name": "Chamarel",
        "countryName": "Mauritius",
        "imageURL": "seneca-image-cdn:///memory-location-images/13thMarch/Chamarel%2C%20Mauritius-min.jpg",
        "latitude": "-20.425094",
        "longitude": "57.391685"
    },
    {
        "id": "bfdf4223-22e1-40a9-b9f8-050cba821e21",
        "name": "Sveti Stefan",
        "countryName": "Montenegro",
        "imageURL": "seneca-image-cdn:///memory-location-images/13thMarch/Sveti%20Stefan%2C%20Montenegro-min.jpg",
        "latitude": "42.251544",
        "longitude": "18.898226"
    },
    {
        "id": "a832b60b-9ad3-43a2-bfd8-d1166bb6588b",
        "name": "The Bottom",
        "countryName": "Saba",
        "imageURL": "seneca-image-cdn:///memory-location-images/The%20Bottom%2C%20Saba-min.jpg",
        "latitude": "17.635464",
        "longitude": "-63.232676"
    },
    {
        "id": "4c036973-7660-45fe-b861-29a2c2c96e46",
        "name": "Dark Hedges",
        "countryName": "Northern Ireland",
        "imageURL": "seneca-image-cdn:///memory-location-images/Dark%20Hedges%2C%20Northern%20Ireland-min.jpg",
        "latitude": "55.134693",
        "longitude": "-6.380822"
    },
    {
        "id": "5776898e-3ade-4440-ad3e-2ab56be82992",
        "name": "Castillo De Coca",
        "countryName": "Spain",
        "imageURL": "seneca-image-cdn:///memory-location-images/Castillo%20De%20Coca%2C%20Spain-min.jpg",
        "latitude": "41.215214",
        "longitude": "-4.525485"
    },
    {
        "id": "b3499f3b-5fc9-463a-bd5f-19900c68a942",
        "name": "O'Higgins Glacier",
        "countryName": "Chile",
        "imageURL": "seneca-image-cdn:///memory-location-images/O_Higgins%20Glacier%2C%20Chile-min.jpg",
        "latitude": "-48.9",
        "longitude": "-73.25"
    },
    {
        "id": "b3e2fa1c-32fb-4535-a5f1-c278c092a03e",
        "name": "Peten",
        "countryName": "Nicaragua",
        "imageURL": "seneca-image-cdn:///memory-location-images/13thMarch/Peten%2C%20Nicaragua-min.jpg",
        "latitude": "16.912033",
        "longitude": "-90.299578"
    },
    {
        "id": "9d62f0dc-5a49-4416-ad38-b9f9b72b7435",
        "name": "Marietas Islands",
        "countryName": "Mexico",
        "imageURL": "seneca-image-cdn:///memory-location-images/13thMarch/Marietas%20Islands%2C%20Mexico-min.jpg",
        "latitude": "20.699641",
        "longitude": "-105.570154"
    },
    {
        "id": "aea16303-edcb-4e0f-9499-cdc9d0ced01d",
        "name": "Verona",
        "countryName": "Italy",
        "imageURL": "seneca-image-cdn:///memory-location-images/13thMarch/Verona%2C%20Italy-min.jpg",
        "latitude": "45.438384",
        "longitude": "10.991622"
    },
    {
        "id": "b2e662ca-094a-41c8-a4b5-80af901f28fb",
        "name": "Uluru",
        "countryName": "Australia",
        "imageURL": "seneca-image-cdn:///memory-location-images/Uluru%2C%20Australia-min.jpg",
        "latitude": "-25.344428",
        "longitude": "131.036882"
    },
    {
        "id": "4b371162-c56e-4507-aad1-487c344f95ae",
        "name": "Batu Bolong",
        "countryName": "Indonesia",
        "imageURL": "seneca-image-cdn:///memory-location-images/13thMarch/Batu%20Bolong%2C%20Indonesia-min.jpg",
        "latitude": "-8.659475",
        "longitude": "115.130131"
    },
    {
        "id": "43734f76-07e7-4121-a614-8a535345a578",
        "name": "Chichicastenango",
        "countryName": "Guatemala",
        "imageURL": "seneca-image-cdn:///memory-location-images/13thMarch/Chichicastenango%2C%20Guatemala-min.jpg",
        "latitude": "14.944972",
        "longitude": "-91.108924"
    },
    {
        "id": "e2242685-cf04-4744-9691-f591429b26c1",
        "name": "Iguazu Falls",
        "countryName": "Argentina",
        "imageURL": "seneca-image-cdn:///memory-location-images/Iguazu%20Falls%2C%20Argentina-min.jpg",
        "latitude": "-25.695259",
        "longitude": "-54.436666"
    },
    {
        "id": "c8c4d980-6b5a-4122-8fd1-dd041db6a746",
        "name": "Uluwatu",
        "countryName": "Indonesia",
        "imageURL": "seneca-image-cdn:///memory-location-images/11thFebOnwards/Uluwatu%2C%20Indonesia-min.jpg",
        "latitude": "-8.829143",
        "longitude": "115.084907"
    },
    {
        "id": "ffdff0b5-f952-4fa2-be08-30a7ed85df99",
        "name": "Masada",
        "countryName": "Israel",
        "imageURL": "seneca-image-cdn:///memory-location-images/13thMarch/Masada%2C%20Israel-min.jpg",
        "latitude": "31.315797",
        "longitude": "35.355552"
    },
    {
        "id": "431e2a74-22ad-4612-a475-f247203b08e1",
        "name": "Boracay",
        "countryName": "Philippines",
        "imageURL": "seneca-image-cdn:///memory-location-images/Boracay%2C%20Philipines-min.jpg",
        "latitude": "11.967375",
        "longitude": "121.924815"
    },
    {
        "id": "6e2548b4-cf38-4467-9911-843acdd8851c",
        "name": "Isfahan",
        "countryName": "Iran",
        "imageURL": "seneca-image-cdn:///memory-location-images/Isfahan%2C%20Iran-min.jpg",
        "latitude": "32.654627",
        "longitude": "51.667983"
    },
    {
        "id": "e3678980-29c0-44e0-9561-25c30b7ab356",
        "name": "Muscat",
        "countryName": "Oman",
        "imageURL": "seneca-image-cdn:///memory-location-images/Muscat%2C%20Oman-min.jpg",
        "latitude": "23.58589",
        "longitude": "58.405923"
    },
    {
        "id": "06caa331-20aa-4070-88c2-0a0b1570664f",
        "name": "Goa",
        "countryName": "India",
        "imageURL": "seneca-image-cdn:///memory-location-images/Goa%2C%20India-min.jpg",
        "latitude": "15.299326",
        "longitude": "74.123996"
    },
    {
        "id": "6b09ed70-cb77-4451-ac9f-69681890093f",
        "name": "Konarak",
        "countryName": "India",
        "imageURL": "seneca-image-cdn:///memory-location-images/11thFebOnwards/Konarak%2C%20India-min.jpg",
        "latitude": "19.892069",
        "longitude": "86.091184"
    },
    {
        "id": "725bf3eb-f930-4aa1-8314-86312f208e67",
        "name": "Lofoten",
        "countryName": "Norway",
        "imageURL": "seneca-image-cdn:///memory-location-images/Lofoten%2C%20Norway-min.jpg",
        "latitude": "67.993145",
        "longitude": "13.639707"
    },
    {
        "id": "cda0b501-2cdd-4ea4-baa4-56f199ae6e5c",
        "name": "Valleta",
        "countryName": "Malta",
        "imageURL": "seneca-image-cdn:///memory-location-images/13thMarch/Valleta%2C%20Malta-min.jpg",
        "latitude": "35.898908",
        "longitude": "14.514553"
    },
    {
        "id": "3007eb85-9370-40c7-9038-836a6724221f",
        "name": "Urbino",
        "countryName": "Italy",
        "imageURL": "seneca-image-cdn:///memory-location-images/13thMarch/Urbino%2C%20Italy-min.jpg",
        "latitude": "43.726257",
        "longitude": "12.636563"
    },
    {
        "id": "74803237-8ddd-4e9b-9872-e00fc5706638",
        "name": "Bokeo",
        "countryName": "Laos",
        "imageURL": "seneca-image-cdn:///memory-location-images/13thMarch/Bokeo%2C%20Laos.%20jpg-min.jpg",
        "latitude": "20.287266",
        "longitude": "100.709787"
    },
    {
        "id": "25df807c-1cea-42de-b375-956943e6b2dc",
        "name": "Great Wall",
        "countryName": "China",
        "imageURL": "seneca-image-cdn:///memory-location-images/Great%20Wall%2C%20China-min%2Cw_750.jpeg",
        "latitude": "40.431908",
        "longitude": "116.570375"
    },
    {
        "id": "cba3f6f1-0e96-41bd-9793-e27e33fb0148",
        "name": "Wartburg Castle",
        "countryName": "Germany",
        "imageURL": "seneca-image-cdn:///memory-location-images/13thMarch/Wartburg%20Castle%2C%20Germany-min.jpg",
        "latitude": "50.966342",
        "longitude": "10.306342"
    },
    {
        "id": "c64719b0-8f34-48c3-bde2-8086fb2dd673",
        "name": "St Isaacs Cathedral",
        "countryName": "Russia",
        "imageURL": "seneca-image-cdn:///memory-location-images/11thFebOnwards/St%20Isaacs%20Cathedral%2C%20Russia-min.jpg",
        "latitude": "59.933905",
        "longitude": "30.306485"
    },
    {
        "id": "db0cc894-ce6b-4bc3-a6e4-066a00cfe7f4",
        "name": "Gstaad",
        "countryName": "Switzerland",
        "imageURL": "seneca-image-cdn:///memory-location-images/Gstaad%2C%20Switzerland-min.jpg",
        "latitude": "46.471759",
        "longitude": "7.286573"
    },
    {
        "id": "f0e62ab3-2fc9-4c94-8c94-1a57b940ea81",
        "name": "Wat Arun",
        "countryName": "Thailand",
        "imageURL": "seneca-image-cdn:///memory-location-images/13thMarch/Wat%20Arun%2C%20Thailand-min.jpg",
        "latitude": "13.7437",
        "longitude": "100.488926"
    },
    {
        "id": "2718e767-51b3-422f-89ef-a01c31d833bc",
        "name": "Oxford",
        "countryName": "UK",
        "imageURL": "seneca-image-cdn:///memory-location-images/Oxford%2C%20UK-min%2Cw_750.jpeg",
        "latitude": "51.752021",
        "longitude": "-1.257726"
    },
    {
        "id": "2465087f-cf3e-4efa-9c01-81f0f1fee272",
        "name": "Isle of Skye",
        "countryName": "UK",
        "imageURL": "seneca-image-cdn:///memory-location-images/Isle%20of%20Skye%2C%20UK-min.jpg",
        "latitude": "57.535926",
        "longitude": "-6.226273"
    },
    {
        "id": "060b8195-c0cc-4edd-8753-3e60d9da8b1a",
        "name": "Maui",
        "countryName": "Hawaii",
        "imageURL": "seneca-image-cdn:///memory-location-images/Maui%2C%20Hawaii-min%2Cw_750.jpeg",
        "latitude": "20.798363",
        "longitude": "-156.331925"
    },
    {
        "id": "c5721e0d-a7e1-4148-81c0-fa54fc016c3c",
        "name": "Panama City",
        "countryName": "Panama",
        "imageURL": "seneca-image-cdn:///memory-location-images/13thMarch/Panama%20City%2C%20Panama-min.jpg",
        "latitude": "8.983333",
        "longitude": "-79.516670"
    },
    {
        "id": "a77d03a9-bef0-4d43-bbd4-36530049532e",
        "name": "Nara Park",
        "countryName": "Japan",
        "imageURL": "seneca-image-cdn:///memory-location-images/13thMarch/Nara%20Park%2C%20Japan-min.jpg",
        "latitude": "34.685047",
        "longitude": "135.843012"
    },
    {
        "id": "6e07f563-9a8b-407b-939f-bd12f2103cf9",
        "name": "Caernarfon Castle",
        "countryName": "Wales",
        "imageURL": "seneca-image-cdn:///memory-location-images/Caernarfon%20Castle%2C%20Wales-min.jpg",
        "latitude": "53.139139",
        "longitude": "-4.27693"
    },
    {
        "id": "14ed6849-e582-4953-9d86-216178571795",
        "name": "Zambezi River",
        "countryName": "Zambia",
        "imageURL": "seneca-image-cdn:///memory-location-images/13thMarch/Zambezi%20River%2C%20Zambia-min.jpg",
        "latitude": "-14.981883",
        "longitude": "29.523737"
    },
    {
        "id": "d92b50d9-0b3d-4c27-912a-6de91e1cd855",
        "name": "Plitvice",
        "countryName": "Croatia",
        "imageURL": "seneca-image-cdn:///memory-location-images/11thFebOnwards/Plitvice%2C%20Croatia-min.jpg",
        "latitude": "44.865397",
        "longitude": "15.582012"
    },
    {
        "id": "23259479-0157-4c85-bb1a-a966b1c630cb",
        "name": "Lamu",
        "countryName": "Kenya",
        "imageURL": "seneca-image-cdn:///memory-location-images/Lamu%2C%20Kenya-min.jpg",
        "latitude": "-2.269557",
        "longitude": "40.900641"
    },
    {
        "id": "17367406-1a4b-43a0-a335-d25f44e2ddcb",
        "name": "Syracuse",
        "countryName": "Italy",
        "imageURL": "seneca-image-cdn:///memory-location-images/11thFebOnwards/Syracuse%2C%20Italy-min.jpg",
        "latitude": "37.08415",
        "longitude": "15.27628"
    },
    {
        "id": "0f391fa9-edca-49d0-8f1b-24ca06b96eca",
        "name": "Sintra",
        "countryName": "Portugal",
        "imageURL": "seneca-image-cdn:///memory-location-images/13thMarch/Sintra%2C%20Portugal-min.jpg",
        "latitude": "38.802913",
        "longitude": "-9.381649"
    },
    {
        "id": "52e737af-d089-4000-bdcb-0836aedc314d",
        "name": "Loire Valley",
        "countryName": "France",
        "imageURL": "seneca-image-cdn:///memory-location-images/13thMarch/Loire%20Valley%2C%20France-min.jpg",
        "latitude": "47.55324",
        "longitude": "1.010529"
    },
    {
        "id": "bea901ff-0983-4b6a-907a-6387a69abeb6",
        "name": "Easter Island",
        "countryName": "Chile",
        "imageURL": "seneca-image-cdn:///memory-location-images/Easter%20Island%2C%20Chile-min%2Cw_750.jpeg",
        "latitude": "-27.112723",
        "longitude": "-109.349687"
    },
    {
        "id": "b291db90-508c-405e-b7e9-b04888da170f",
        "name": "Paricutin",
        "countryName": "Mexico",
        "imageURL": "seneca-image-cdn:///memory-location-images/Chichen%20Itza%2C%20Mexico-min%2Cw_750.jpeg",
        "latitude": "19.493347",
        "longitude": "-102.251398"
    },
    {
        "id": "fb853d30-5ea4-48bb-a466-841501a23f58",
        "name": "Mexico City",
        "countryName": "Mexico",
        "imageURL": "seneca-image-cdn:///memory-location-images/Mexico%20City%2C%20Mexico-min.jpg",
        "latitude": "19.434394",
        "longitude": "-99.133082"
    },
    {
        "id": "47652841-00d2-483d-aa30-2f06ce3f7d92",
        "name": "Valle De La Luna",
        "countryName": "Chile",
        "imageURL": "seneca-image-cdn:///memory-location-images/13thMarch/Valle%20De%20La%20Luna%2C%20Chile-min.jpg",
        "latitude": "-22.925764",
        "longitude": "-68.287993"
    },
    {
        "id": "ca4f9c04-0ff0-40dd-af21-620bb366cb8c",
        "name": "Tikal",
        "countryName": "Guatemala",
        "imageURL": "seneca-image-cdn:///memory-location-images/11thFebOnwards/Tikal%2C%20Guatemala-min.jpg",
        "latitude": "17.222041",
        "longitude": "-89.623699"
    },
    {
        "id": "afbc9d73-1378-4fbe-b01c-9a2ff5a96f66",
        "name": "Abraham Lake",
        "countryName": "Canada",
        "imageURL": "seneca-image-cdn:///memory-location-images/13thMarch/Abraham%20Lake%2C%20Canada-min.jpg",
        "latitude": "52.223611",
        "longitude": "-116.427222"
    },
    {
        "id": "f85a7ea6-0a58-4625-a5ec-e6b9cad681f6",
        "name": "Coogee",
        "countryName": "Australia",
        "imageURL": "seneca-image-cdn:///memory-location-images/13thMarch/Coogee%2C%20Australia.%20jpg-min.jpg",
        "latitude": "-33.919",
        "longitude": "151.2555"
    },
    {
        "id": "d91b7851-6df2-44db-bac9-564a8c630727",
        "name": "Washington",
        "countryName": "USA",
        "imageURL": "seneca-image-cdn:///memory-location-images/Washington%2C%20USA-min.jpg",
        "latitude": "38.889484",
        "longitude": "-77.035279"
    },
    {
        "id": "2f92993f-c06b-45cc-9d51-a08e84311535",
        "name": "Siwa, Oasis",
        "countryName": "Egypt",
        "imageURL": "seneca-image-cdn:///memory-location-images/Siwa%20Oasis%2C%20Egypt-min.jpg",
        "latitude": "29.203171",
        "longitude": "25.519545"
    },
    {
        "id": "6136bbf4-b72b-4cf0-a9fc-880a02ef0044",
        "name": "Llanthony Priory",
        "countryName": "UK",
        "imageURL": "seneca-image-cdn:///memory-location-images/13thMarch/Llanthony%20Priory%2C%20Wales-min.jpg",
        "latitude": "51.944639",
        "longitude": "-3.036928"
    },
    {
        "id": "54149a71-73bc-476a-a7e9-f0f5fc4ebdb7",
        "name": "Torres del Paine",
        "countryName": "Chile",
        "imageURL": "seneca-image-cdn:///memory-location-images/Torres%20del%20Paine%2C%20Chile-min%2Cw_750.jpeg",
        "latitude": "-50.942326",
        "longitude": "-73.406788"
    },
    {
        "id": "9e530138-85dc-49db-b53b-93df7ea1afcd",
        "name": "Polperro",
        "countryName": "UK",
        "imageURL": "seneca-image-cdn:///memory-location-images/13thMarch/Polperro%2C%20UK-min.jpg",
        "latitude": "50.331027",
        "longitude": "-4.520718"
    },
    {
        "id": "c81cecf1-099d-4089-a365-068f3656ff0d",
        "name": "Draa",
        "countryName": "River",
        "imageURL": "seneca-image-cdn:///memory-location-images/13thMarch/Draa%20River%2C%20Morocco-min.jpg",
        "latitude": "29.583059",
        "longitude": "-8.319758"
    },
    {
        "id": "75ff0eb5-0600-45dc-80b6-e32ba04a21f8",
        "name": "Borobudur",
        "countryName": "Indonesia",
        "imageURL": "seneca-image-cdn:///memory-location-images/Borobudur%2C%20Indonesia-min.jpg",
        "latitude": "-7.607874",
        "longitude": "110.203751"
    },
    {
        "id": "2cbe806b-f345-409e-8b11-e7f135e52eda",
        "name": "Dover",
        "countryName": "UK",
        "imageURL": "seneca-image-cdn:///memory-location-images/13thMarch/Dover%2C%20UK-min.jpg",
        "latitude": "51.134469",
        "longitude": "1.357303"
    },
    {
        "id": "ce49b529-7620-4ec6-9fdd-240b48ad65e6",
        "name": "Whitehaven",
        "countryName": "Australia",
        "imageURL": "seneca-image-cdn:///memory-location-images/Whitehaven%2C%20Australia-min.jpg",
        "latitude": "-20.282432",
        "longitude": "149.038854"
    },
    {
        "id": "9918e629-a051-4d9b-99cf-5d9f325a75e1",
        "name": "Ephesus",
        "countryName": "Turkey",
        "imageURL": "seneca-image-cdn:///memory-location-images/Ephesus%2C%20Turkey-min.jpg",
        "latitude": "37.948931",
        "longitude": "27.367641"
    },